City_ID,City,Lat,Lng,Max Temp,Humidity,Cloudiness,Wind Speed,Country,Date
0,grytviken,-54.2811,-36.5092,1.18,84,64,4.25,GS,1715046292
1,adamstown,-25.066,-130.1015,21.91,77,60,8.6,PN,1715046292
2,aljezur,37.3191,-8.8033,11.67,85,6,5.02,PT,1715046014
3,bilibino,68.0546,166.4372,-1.26,88,85,1.4,RU,1715046014
4,mana,5.6592,-53.7767,26.4,89,100,3.69,GF,1715046292
5,atafu village,-8.5421,-172.5159,29.93,71,11,3.85,TK,1715046292
6,blackmans bay,-43.0167,147.3167,15.96,64,10,0.8,AU,1715046015
7,ilulissat,69.2167,-51.1,-4.99,68,100,0.0,GL,1715046015
8,papao,-17.75,-149.55,30.82,84,100,9.75,PF,1715046293
9,klyuchi,52.2667,79.1667,8.75,46,63,5.31,RU,1715046015
10,port-aux-francais,-49.35,70.2167,7.13,97,100,13.74,TF,1715046015
11,fenoarivo be,-18.4333,46.5667,15.44,80,0,4.12,MG,1715046015
12,georgetown,5.4112,100.3354,27.96,83,20,1.54,MY,1715046015
13,luanda,-8.8368,13.2343,27.0,94,40,1.54,AO,1715046293
14,bethel,41.3712,-73.414,18.46,84,100,0.45,US,1715046293
15,lihue,21.9789,-159.3672,27.58,78,75,6.69,US,1715046016
16,pitea,65.3172,21.4794,0.05,98,100,2.04,SE,1715046016
17,port elizabeth,-33.918,25.5701,17.95,98,20,1.54,ZA,1715046293
18,petrosino,37.7077,12.4999,19.37,75,100,8.81,IT,1715046016
19,saipan,15.1355,145.701,32.39,58,40,7.2,MP,1715046016
20,bajna,27.9,77.6833,34.36,17,30,1.88,IN,1715046016
21,bredasdorp,-34.5322,20.0403,14.43,62,3,1.63,ZA,1715046294
22,nadi,-17.8,177.4167,29.0,79,75,3.6,FJ,1715046294
23,tidjikja,18.5564,-11.4271,30.43,10,46,3.4,MR,1715046017
24,okhotsk,59.3833,143.3,3.17,83,64,2.87,RU,1715046294
25,walvis bay,-22.9575,14.5053,14.53,94,0,3.6,NA,1715046017
26,jamestown,42.097,-79.2353,14.8,41,0,3.09,US,1715046217
27,dunaivtsi,48.8891,26.8564,10.75,88,79,2.86,UA,1715046295
28,anadyr,64.75,177.4833,-2.72,80,0,3.0,RU,1715046295
29,patong,7.8961,98.2966,31.68,72,97,2.75,TH,1715046295
30,margaret river,-33.95,115.0667,19.08,50,5,3.96,AU,1715046018
31,ushuaia,-54.8,-68.3,0.81,93,100,1.54,AR,1715046018
32,karasuk,53.7377,78.0403,8.55,46,100,5.99,RU,1715046295
33,fontanelas,38.8472,-9.4372,13.66,85,7,7.68,PT,1715046018
34,callao,-12.0667,-77.15,22.07,77,0,4.12,PE,1715046018
35,enewetak,11.3474,162.3373,27.92,78,90,8.21,MH,1715046296
36,bandarbeyla,9.4942,50.8122,28.51,78,45,2.3,SO,1715046296
37,likasi,-10.9814,26.7333,17.34,89,99,1.35,CD,1715046018
38,haiku-pauwela,20.9219,-156.3051,25.68,75,40,10.8,US,1715046019
39,carnarvon,-24.8667,113.6333,22.18,48,0,7.76,AU,1715046019
40,saint-pierre,-21.3393,55.4781,23.82,73,40,5.14,RE,1715046019
41,polyarnyy,69.1989,33.4478,-3.95,65,100,5.59,RU,1715046019
42,st. john's,47.5649,-52.7093,3.87,93,100,9.26,CA,1715046257
43,fale old settlement,-9.3852,-171.2468,30.07,69,8,4.33,TK,1715046296
44,mastic beach,40.7668,-72.8521,18.21,94,100,3.13,US,1715046019
45,waitangi,-43.9535,-176.5597,11.57,72,100,2.24,NZ,1715046297
46,coron,11.9986,120.2043,32.21,60,36,3.99,PH,1715046020
47,mufumbwe,-13.6833,24.8,16.93,81,100,1.99,ZM,1715046020
48,yellowknife,62.456,-114.3525,18.01,51,40,6.17,CA,1715046157
49,amga,60.8953,131.9608,14.12,44,94,5.42,RU,1715046297
50,black river,18.0264,-77.8487,26.54,83,0,1.42,JM,1715046020
51,obo,5.3998,26.4869,23.88,61,75,1.95,CF,1715046297
52,sarayonu,38.262,32.4046,2.79,39,0,1.63,TR,1715046297
53,nemuro,43.3236,145.575,7.17,99,100,4.45,JP,1715046021
54,ciudad acuna,29.3232,-100.9522,34.16,47,0,6.69,MX,1715046021
55,constantia,44.1833,28.65,10.39,78,31,5.53,RO,1715046209
56,shingu,33.7333,135.9833,20.0,99,100,1.92,JP,1715046298
57,peace river,56.2501,-117.286,16.17,44,100,6.69,CA,1715046298
58,isangel,-19.55,169.2667,25.29,72,76,5.77,VU,1715046021
59,zag,46.9441,99.165,16.05,18,5,1.31,MN,1715046021
60,ancud,-41.8697,-73.8203,6.35,94,100,2.46,CL,1715046021
61,wailua homesteads,22.0669,-159.378,27.24,84,75,6.69,US,1715046298
62,west island,-12.1568,96.8225,26.99,83,40,7.72,CC,1715046022
63,sao felix do xingu,-6.6447,-51.995,23.73,91,23,1.05,BR,1715046022
64,bengkulu,-3.8004,102.2655,26.2,89,100,1.77,ID,1715046022
65,tupiza,-21.45,-65.7167,12.49,21,2,2.93,BO,1715046022
66,south sioux city,42.4739,-96.4136,13.97,94,100,5.66,US,1715046067
67,kerikeri,-35.2268,173.9474,21.06,71,48,1.79,NZ,1715046022
68,edinburgh of the seven seas,-37.0676,-12.3116,14.14,71,96,9.58,SH,1715046299
69,albany,42.6001,-73.9662,15.44,63,100,2.7,US,1715046078
70,saldanha,-33.0117,17.9442,14.57,91,88,4.77,ZA,1715046023
71,iskateley,67.6803,53.1512,-13.32,92,100,3.58,RU,1715046023
72,camana,-16.6228,-72.7111,19.63,89,93,2.85,PE,1715046073
73,tamontaka,7.1806,124.2256,32.74,55,66,1.0,PH,1715046023
74,tura,25.5198,90.2201,25.74,68,25,0.88,IN,1715046023
75,belyy yar,53.6039,91.3903,9.94,62,0,1.0,RU,1715046023
76,daru,-9.0763,143.2092,26.84,88,100,6.74,PG,1715046300
77,iqaluit,63.7506,-68.5145,-4.15,80,20,3.6,CA,1715046300
78,puerto ayora,-0.7393,-90.3518,23.08,98,27,2.69,EC,1715046300
79,berezovyy,51.6667,135.7,11.97,36,6,2.36,RU,1715046300
80,cambria,35.5641,-121.0808,24.41,82,65,4.47,US,1715046301
81,pleiku,13.9833,108.0,28.93,54,3,2.77,VN,1715046301
82,kayangel,8.0823,134.7173,28.25,71,26,4.04,PW,1715046025
83,petropavlovsk-kamchatsky,53.0452,158.6483,6.33,78,75,4.0,RU,1715046025
84,hermanus,-34.4187,19.2345,17.5,65,99,2.27,ZA,1715046025
85,olonkinbyen,70.9221,-8.7187,0.39,98,100,7.99,SJ,1715046301
86,montceau-les-mines,46.6667,4.3667,9.51,98,100,1.1,FR,1715046301
87,hawaiian paradise park,19.5933,-154.9731,23.91,87,100,2.06,US,1715046301
88,farah,32.5,62.5,24.63,25,0,1.91,AF,1715046302
89,dudinka,69.4058,86.1778,-14.07,97,96,2.24,RU,1715046025
90,nuuk,64.1835,-51.7216,-2.66,74,16,5.14,GL,1715046009
91,lebu,-37.6167,-73.65,10.73,88,100,5.66,CL,1715046026
92,afif,23.9065,42.9172,19.93,25,0,3.88,SA,1715046026
93,taltal,-25.4,-70.4833,15.08,86,100,0.42,CL,1715046302
94,visby,57.6409,18.296,3.12,87,0,5.66,SE,1715046012
95,ust-nera,64.5667,143.2,5.04,70,46,2.8,RU,1715046026
96,hakui,36.8833,136.7833,18.71,95,100,6.91,JP,1715046026
97,vorgashor,67.5833,63.95,-18.44,100,67,3.17,RU,1715046303
98,aasiaat,68.7098,-52.8699,-13.48,91,57,2.29,GL,1715046027
99,sechura,-5.5569,-80.8222,21.49,73,35,7.24,PE,1715046027
100,geraldton,-28.7667,114.6,17.23,63,0,3.09,AU,1715046027
101,ribeira grande,38.5167,-28.7,18.21,94,8,6.71,PT,1715046027
102,pariaman,-0.619,100.12,31.03,79,100,0.66,ID,1715046304
103,harlingen,26.1906,-97.6961,29.05,86,100,7.2,US,1715046117
104,xilin hot,43.9667,116.0333,17.71,19,0,1.26,CN,1715046304
105,whitehorse,60.7161,-135.0538,4.89,89,100,4.63,CA,1715046027
106,antonio enes,-16.2325,39.9086,23.65,86,19,2.02,MZ,1715046304
107,sinabang,2.4803,96.3801,25.5,95,100,1.53,ID,1715046028
108,avarua,-21.2078,-159.775,28.03,83,75,5.66,CK,1715046028
109,yeppoon,-23.1333,150.7333,27.36,74,10,8.11,AU,1715046028
110,lerwick,60.1545,-1.1494,9.0,96,100,4.07,GB,1715046028
111,oranjemund,-28.55,16.4333,13.85,84,0,1.02,NA,1715046028
112,havana,23.133,-82.383,26.24,78,20,5.66,CU,1715046305
113,diego martin,10.7005,-61.5342,26.88,87,100,3.07,TT,1715046305
114,tiksi,71.6872,128.8694,-1.63,90,73,3.63,RU,1715046028
115,ciudad tecun uman,14.6667,-92.15,30.97,76,35,2.08,GT,1715046305
116,broken hill,-31.95,141.4333,16.31,60,100,6.41,AU,1715046029
117,kodiak,57.79,-152.4072,6.73,81,100,5.14,US,1715046305
118,usinsk,65.9939,57.5281,-5.52,77,100,7.6,RU,1715046029
119,longyearbyen,78.2186,15.6401,-3.09,74,75,4.63,SJ,1715046208
120,saint-denis,48.9167,2.3333,11.43,88,0,1.03,FR,1715046029
121,seeb,23.6703,58.1891,33.05,40,0,6.17,OM,1715046306
122,annotto bay,18.2717,-76.7652,28.91,94,1,1.13,JM,1715046306
123,pisco,-13.7,-76.2167,20.03,83,0,3.6,PE,1715046030
124,port mathurin,-19.6833,63.4167,25.54,76,8,12.68,MU,1715046030
125,bria,6.5423,21.9863,24.42,54,100,1.02,CF,1715046030
126,thompson,55.7435,-97.8558,15.09,41,75,3.6,CA,1715046164
127,isafjordur,66.0755,-23.124,1.66,94,95,4.34,IS,1715046030
128,kingston,17.997,-76.7936,28.53,79,40,3.6,JM,1715046237
129,invercargill,-46.4,168.35,10.57,93,100,3.58,NZ,1715046030
130,badger,64.8,-147.5333,3.14,88,100,2.06,US,1715046030
131,codrington,-38.2667,141.9667,16.39,60,11,2.88,AU,1715046307
132,hamilton,39.1834,-84.5333,20.43,94,100,2.57,US,1715046307
133,cidreira,-30.1811,-50.2056,21.93,80,24,0.81,BR,1715046307
134,yorkton,51.2167,-102.4677,10.91,87,100,10.29,CA,1715046307
135,carbonear,47.7332,-53.2148,4.12,91,100,6.2,CA,1715046031
136,sao joao da barra,-21.6403,-41.0511,24.66,88,0,4.09,BR,1715046307
137,papatowai,-46.5619,169.4708,11.12,75,89,5.45,NZ,1715046308
138,minas de marcona,-15.2119,-75.1103,15.04,84,52,5.06,PE,1715046031
139,inverell,-29.7833,151.1167,22.28,54,0,2.68,AU,1715046032
140,margate,51.3813,1.3862,11.5,95,100,0.45,GB,1715046304
141,ghat,24.9647,10.1728,26.14,35,100,4.23,LY,1715046032
142,khandyga,62.6667,135.6,8.89,73,68,3.72,RU,1715046308
143,puerto natales,-51.7236,-72.4875,-2.49,90,14,1.37,CL,1715046308
144,mohr,54.3528,9.7167,12.05,92,94,3.09,DE,1715046032
145,mar del plata,-38.0023,-57.5575,15.61,82,0,4.63,AR,1715046062
146,basco,20.4487,121.9702,28.48,68,7,1.21,PH,1715046309
147,udachny,66.4167,112.4,-0.31,98,100,10.04,RU,1715046033
148,punta arenas,-53.15,-70.9167,3.06,93,75,3.09,CL,1715046033
149,alofi,-19.0595,-169.9187,28.94,84,40,5.14,NU,1715046309
150,portland,45.5234,-122.6762,13.02,71,20,7.2,US,1715046210
151,buka,40.8108,69.1986,21.28,46,19,1.12,UZ,1715046309
152,tralee,52.2704,-9.7026,7.8,93,69,2.28,IE,1715046033
153,sisimiut,66.9395,-53.6735,-7.86,86,47,3.34,GL,1715046033
154,extrema,-22.8547,-46.3183,16.64,79,0,2.72,BR,1715046310
155,sinop,41.7711,34.8709,5.29,54,0,2.85,TR,1715046310
156,gorgan,36.8387,54.4348,15.98,94,75,0.0,IR,1715046310
157,ola,59.5833,151.2833,0.08,80,94,3.0,RU,1715046034
158,east london,-33.0153,27.9116,24.17,36,0,3.37,ZA,1715046034
159,suva,-18.1416,178.4415,25.71,89,75,1.54,FJ,1715046310
160,kone,-21.0595,164.8658,28.4,41,1,4.45,NC,1715046311
161,nova sintra,14.8667,-24.7167,24.1,76,0,4.02,CV,1715046311
162,college,64.8569,-147.8028,3.18,88,100,2.06,US,1715046035
163,tete,-16.1564,33.5867,19.29,75,0,1.58,MZ,1715046035
164,yinchuan,38.4681,106.2731,20.75,9,7,2.26,CN,1715046311
165,leninskoye,41.7589,69.3864,18.8,56,8,2.16,KZ,1715046311
166,vilyuysk,63.7553,121.6247,2.78,85,100,4.47,RU,1715046311
167,lima,-12.0432,-77.0282,21.06,77,0,4.12,PE,1715046274
168,talnakh,69.4865,88.3972,-10.62,95,94,3.04,RU,1715046035
169,akjoujt,19.6969,-14.4164,28.05,12,99,3.78,MR,1715046312
170,lata,40.1629,-8.3327,10.6,96,0,1.72,PT,1715046036
171,qaqortoq,60.7167,-46.0333,-0.8,67,1,2.29,GL,1715046036
172,laguna,38.421,-121.4238,21.49,48,0,5.14,US,1715046170
173,nar'yan-mar,67.6713,53.087,-13.27,92,100,3.58,RU,1715046036
174,tamanrasset,22.785,5.5228,25.95,21,20,2.06,DZ,1715046312
175,tevriz,57.509,72.4042,7.79,61,100,5.87,RU,1715046312
176,kapa'a,22.0752,-159.319,27.99,83,75,6.69,US,1715046313
177,antsiranana,-12.2787,49.2917,24.43,77,100,8.01,MG,1715046313
178,el calafate,-50.3408,-72.2768,-3.25,68,10,1.3,AR,1715046037
179,murzuq,25.9155,13.9184,23.36,24,76,3.95,LY,1715046313
180,sao joao do piaui,-8.3581,-42.2467,25.16,62,96,3.04,BR,1715046313
181,bana,5.1481,10.2762,17.6,95,99,0.88,CM,1715046313
182,sitka,57.0531,-135.33,8.94,66,75,8.23,US,1715046037
183,mirny,62.5353,113.9611,2.91,99,100,6.71,RU,1715046037
184,as sulayyil,20.4607,45.5779,26.14,20,0,7.01,SA,1715046313
185,afaahiti,-17.75,-149.2833,29.93,86,82,9.13,PF,1715046314
186,kimbe,-5.5502,150.1429,29.24,81,98,0.97,PG,1715046314
187,porto empedocle,37.2934,13.5264,16.64,61,100,1.82,IT,1715046038
188,siavonga,-16.5382,28.7088,21.51,56,0,2.51,ZM,1715046038
189,sakakah,29.9697,40.2064,16.76,47,0,4.05,SA,1715046314
190,loreto,22.2667,-101.9667,24.85,15,100,5.82,MX,1715046314
191,al khawr,25.7667,51.3167,28.5,52,56,4.55,QA,1715046314
192,new norfolk,-42.7826,147.0587,16.62,54,2,0.61,AU,1715046314
193,christchurch,-43.5333,172.6333,14.12,61,75,3.09,NZ,1715046038
194,bathsheba,13.2167,-59.5167,28.34,78,40,6.69,BB,1715046038
195,muisne,0.6,-80.0333,26.15,87,100,3.86,EC,1715046315
196,calama,-22.4667,-68.9333,15.27,21,0,4.12,CL,1715046315
197,ofunato,39.0717,141.7167,14.56,99,100,2.52,JP,1715046039
198,okakarara,-20.5833,17.4333,13.97,45,2,1.98,NA,1715046315
199,midvagur,62.0511,-7.1939,3.46,87,20,0.0,FO,1715046315
200,sur,22.5667,59.5289,31.47,60,0,4.06,OM,1715046315
201,uturoa,-16.7333,-151.4333,27.95,80,25,9.19,PF,1715046316
202,shache,38.4167,77.2406,22.53,29,100,1.66,CN,1715046316
203,arraial do cabo,-22.9661,-42.0278,24.24,89,0,10.4,BR,1715046040
204,iquitos,-3.7481,-73.2472,25.02,88,75,2.06,PE,1715046245
205,fyodorovka,53.6314,62.7078,7.94,76,20,5.06,KZ,1715046040
206,zhigalovo,54.8097,105.1578,11.1,68,100,3.98,RU,1715046316
207,corner brook,48.9667,-57.9484,7.09,97,100,2.35,CA,1715046040
208,greymouth,-42.4667,171.2,13.12,43,16,1.26,NZ,1715046316
209,luganville,-15.5333,167.1667,26.18,70,96,4.23,VU,1715046040
210,chonchi,-42.6128,-73.8092,5.07,98,100,0.92,CL,1715046317
211,neiafu,-18.65,-173.9833,30.38,84,40,5.66,TO,1715046317
212,khovd,48.0056,91.6419,18.24,32,100,1.62,MN,1715046048
213,aras-asan,8.8908,126.3033,29.02,67,91,1.96,PH,1715046041
214,prestea,5.4327,-2.1428,24.93,93,99,0.71,GH,1715046041
215,letlhakane,-21.4167,25.5833,17.16,34,0,3.6,BW,1715046041
216,ujae,8.9322,165.7642,27.92,82,85,9.12,MH,1715046041
217,island harbour,50.724,-1.2758,13.29,74,78,1.79,GB,1715046041
218,grand gaube,-20.0064,57.6608,25.22,79,63,2.68,MU,1715046041
219,el paujil,1.5701,-75.3286,23.25,92,100,1.62,CO,1715046041
220,foso,5.7012,-1.2866,24.59,93,92,0.89,GH,1715046042
221,puerto baquerizo moreno,-0.9,-89.6,23.31,89,3,3.11,EC,1715046042
222,namsos,64.4662,11.4957,3.03,75,8,5.14,NO,1715046042
223,qarchi gak,37.04,66.7889,24.03,42,5,5.94,AF,1715046042
224,al jawf,29.5,38.75,15.11,50,0,2.99,SA,1715046042
225,weno,7.4515,151.8468,27.97,94,100,4.63,FM,1715046042
226,huron,41.1501,-82.5499,16.95,45,45,3.08,US,1715046042
227,la passe,45.5549,-0.8967,13.32,88,78,6.26,FR,1715046042
228,ust'-uda,54.1742,103.0304,8.56,67,100,4.94,RU,1715046042
229,bokani,9.4333,5.2,29.16,64,100,2.69,NG,1715046043
230,abepura,-2.6333,140.5833,29.45,74,20,2.06,ID,1715046043
231,ambam,2.3833,11.2833,21.75,99,100,1.09,CM,1715046043
232,nuku'alofa,-21.1333,-175.2,28.19,94,75,2.06,TO,1715046043
233,gereida,11.2811,25.1414,26.79,14,3,4.74,SD,1715046043
234,pico truncado,-46.7949,-67.9573,1.04,53,100,4.22,AR,1715046043
235,sompeta,18.9333,84.6,30.47,70,0,5.37,IN,1715046043
236,luderitz,-26.6481,15.1594,14.45,73,0,2.92,NA,1715046043
237,urengoy,65.9667,78.3667,-8.41,92,53,4.48,RU,1715046044
238,utrik,11.2278,169.8474,27.29,79,76,8.95,MH,1715046044
239,galesong,-5.3166,119.3661,30.01,75,16,1.18,ID,1715046044
240,douz,33.4663,9.0203,26.23,19,100,4.09,TN,1715046044
241,taguatinga,-12.3857,-46.5711,26.69,54,35,2.93,BR,1715046044
242,hillsdale,41.0026,-74.0404,20.65,85,0,2.06,US,1715046044
243,colac,-38.3333,143.5833,15.65,50,3,1.42,AU,1715046044
244,katsuura,35.1333,140.3,20.01,88,100,10.97,JP,1715046044
245,perryton,36.4,-100.8027,19.55,24,25,7.46,US,1715045919
246,nema,57.5067,50.5011,-0.8,82,5,1.44,RU,1715046045
247,xinyu,27.8043,114.9334,24.02,74,100,1.64,CN,1715046045
248,tazovsky,67.4667,78.7,-11.57,96,98,3.39,RU,1715046045
249,praia da vitoria,38.7333,-27.0667,19.14,88,75,11.3,PT,1715046045
250,port lincoln,-34.7333,135.8667,17.09,70,0,3.97,AU,1715046045
251,enoch,37.7733,-113.0244,15.14,25,0,5.66,US,1715046045
252,inyonga,-6.7167,32.0667,17.4,95,16,1.77,TZ,1715046045
253,husainabad,24.5333,84.0167,32.37,43,65,3.07,IN,1715046046
254,novyy urengoy,66.0833,76.6333,-10.39,94,32,3.18,RU,1715046046
255,jalai nur,49.45,117.7,18.63,25,13,1.71,CN,1715046046
256,novodvinsk,64.4165,40.8122,-2.34,73,100,0.81,RU,1715046046
257,namibe,-15.1961,12.1522,22.32,71,9,3.3,AO,1715046046
258,natal,-5.795,-35.2094,26.36,94,40,2.06,BR,1715045929
259,el granada,37.5027,-122.4694,18.49,76,40,10.29,US,1715046046
260,vadso,70.0744,29.7487,-3.51,86,40,6.17,NO,1715046046
261,carutapera,-1.195,-46.02,24.8,96,100,1.98,BR,1715046046
262,salinopolis,-0.6136,-47.3561,26.25,90,99,3.51,BR,1715046047
263,lib,8.3122,167.3766,27.98,83,97,9.5,MH,1715046047
264,idah,7.1065,6.7342,25.52,94,100,1.15,NG,1715046047
265,mejit,10.2753,170.8646,27.44,79,71,8.97,MH,1715046047
266,aleksandrovsk-sakhalinskiy,50.8975,142.1561,6.98,51,31,3.71,RU,1715046047
267,iquique,-20.2208,-70.1431,19.02,80,37,3.4,CL,1715046047
268,northam,51.0333,-4.2167,11.48,94,10,4.11,GB,1715046047
269,zaigrayevo,51.8336,108.2703,18.85,39,11,5.12,RU,1715046047
270,kirakira,-10.4544,161.9205,31.4,66,90,5.83,SB,1715046048
271,egilsstadir,65.2653,-14.3948,2.95,70,0,4.63,IS,1715046048
272,stanley,54.868,-1.6985,9.88,94,75,1.54,GB,1715045945
273,shimoda,34.6667,138.95,21.2,95,100,7.74,JP,1715046048
274,chamical,-30.36,-66.314,17.02,78,6,2.08,AR,1715046048
275,vorotynets,56.0603,45.8633,0.68,85,100,2.75,RU,1715046048
276,dauphin,51.1494,-100.0502,14.08,72,100,5.14,CA,1715046003
277,hovd,48.0056,91.6419,18.24,32,100,1.62,MN,1715046048
278,as sars,36.0764,9.0212,14.79,45,100,1.08,TN,1715046048
279,naze,28.3667,129.4833,23.51,66,9,5.85,JP,1715046049
280,fiambala,-27.6871,-67.6149,20.54,10,21,4.75,AR,1715046049
281,borazjan,29.2666,51.2159,27.56,44,0,3.7,IR,1715046049
282,saskatoon,52.1168,-106.6345,10.99,93,100,5.66,CA,1715046033
283,esperanza,19.5847,-70.9849,24.32,96,35,1.3,DO,1715046049
284,lichinga,-13.3128,35.2406,18.05,88,0,3.6,MZ,1715046049
285,cole harbour,44.6724,-63.4751,9.97,93,100,3.09,CA,1715046049
286,chifeng,42.2683,118.9636,17.32,26,82,4.02,CN,1715046049
287,hadibu,12.65,54.0333,28.65,73,18,2.67,YE,1715046050
288,manokwari,-0.8667,134.0833,27.66,82,100,2.1,ID,1715046050
289,huaral,-11.495,-77.2078,19.75,86,75,1.6,PE,1715046050
290,sarina,-21.4333,149.2167,25.06,1,91,6.34,AU,1715046050
291,vilyuchinsk,52.9306,158.4028,7.15,81,90,2.75,RU,1715046050
292,tolanaro,-25.0319,46.9987,21.58,83,0,5.55,MG,1715046050
293,mil'kovo,55.6078,37.7956,1.91,83,100,5.21,RU,1715046050
294,flying fish cove,-10.4217,105.6791,26.82,89,75,5.14,CX,1715046050
295,kailua-kona,19.6406,-155.9956,26.98,78,75,4.63,US,1715045790
296,san antonio de pale,-1.4014,5.6325,27.91,80,100,6.7,GQ,1715046051
297,mthatha,-31.5889,28.7844,13.31,71,0,0.0,ZA,1715046051
298,as samawah,31.332,45.2944,23.97,55,0,1.51,IQ,1715046051
299,callaway,30.153,-85.5699,25.96,86,0,3.09,US,1715046051
300,hithadhoo,-0.6,73.0833,29.36,73,13,3.85,MV,1715046051
301,alta,69.9689,23.2717,0.59,64,75,3.09,NO,1715046051
302,komatsu,36.4026,136.4509,16.99,94,100,4.63,JP,1715046052
303,barah,13.7,30.3667,28.07,16,0,7.55,SD,1715046052
304,beau vallon,-20.4189,57.6953,25.13,65,40,6.69,MU,1715046052
305,nova vicosa,-17.8919,-39.3719,25.18,84,0,3.63,BR,1715046052
306,ulsteinvik,62.3432,5.8487,10.97,92,99,0.89,NO,1715046052
307,inarajan village,13.2736,144.7484,31.54,80,100,5.54,GU,1715046052
308,ubinskoye,55.3068,79.6802,7.45,45,100,5.42,RU,1715046052
309,rio verde de mato grosso,-18.9181,-54.8442,22.85,59,1,2.45,BR,1715046053
310,nizhnesortymskiy,62.4397,71.7603,0.08,100,100,7.09,RU,1715046053
311,rasht,37.2808,49.5832,13.97,98,100,1.81,IR,1715046053
312,pushkar,26.5,74.55,30.57,30,40,4.71,IN,1715046053
313,presidente medici,-11.1753,-61.9014,24.3,91,100,0.82,BR,1715046053
314,pasighat,28.0667,95.3333,25.72,57,99,1.29,IN,1715046053
315,niafunke,15.9322,-3.9906,30.01,12,60,1.81,ML,1715046053
316,pangoa,-12.1167,-73.0,22.63,97,90,1.13,PE,1715046053
317,kampene,-3.6,26.6667,21.11,84,5,0.93,CD,1715046053
318,mabaruma,8.2,-59.7833,24.6,88,100,0.87,GY,1715046054
319,mokhsogollokh,61.4681,128.9203,12.35,56,100,5.47,RU,1715046054
320,igarka,67.4667,86.5833,-6.66,89,99,6.26,RU,1715046054
321,loen,7.7601,168.2307,28.02,82,100,9.57,MH,1715046054
322,aberdeen,57.1437,-2.0981,9.55,87,75,5.14,GB,1715046054
323,huarmey,-10.0681,-78.1522,19.72,87,100,4.32,PE,1715046054
324,al mayadin,35.0209,40.4535,16.97,57,44,4.76,SY,1715046054
325,twon-brass,4.3151,6.2418,28.9,80,100,4.59,NG,1715046054
326,saurimo,-9.6608,20.3916,17.96,69,29,1.23,AO,1715046055
327,katsuren-haebaru,26.3369,127.8719,27.43,77,40,6.17,JP,1715046055
328,kavaratti,10.5669,72.642,30.05,67,100,4.22,IN,1715046055
329,comodoro rivadavia,-45.8667,-67.5,6.92,93,100,6.17,AR,1715046055
330,tsiombe,-25.3,45.4833,18.59,79,0,2.23,MG,1715046055
331,bull savanna,17.8868,-77.5902,25.09,84,0,3.76,JM,1715046055
332,cabo san lucas,22.8909,-109.9124,26.17,57,100,2.06,MX,1715045877
333,mezhdurechenskiy,59.6,65.9333,4.47,96,90,3.33,RU,1715046055
334,ugoofaaru,5.6667,73.0,29.12,75,100,2.28,MV,1715046056
335,longboat key,27.4125,-82.659,27.02,58,0,3.09,US,1715045895
336,san juan de uraba,8.7592,-76.5297,27.79,87,100,2.54,CO,1715046056
337,uglich,57.5275,38.3317,-0.97,66,100,2.56,RU,1715046056
338,hlybokaye,55.1382,27.6879,3.11,97,100,6.07,BY,1715046056
339,alice springs,-23.7,133.8833,17.75,55,77,5.66,AU,1715046056
340,chaoyang,41.5703,120.4586,20.25,25,67,6.8,CN,1715046056
341,fort mcmurray,56.7268,-111.381,19.77,42,100,5.14,CA,1715046056
342,holualoa,19.6228,-155.9522,24.91,78,75,4.63,US,1715046028
343,mammoth lakes,37.6485,-118.9721,12.4,50,0,10.8,US,1715045837
344,griffith,41.5284,-87.4237,19.61,80,0,2.57,US,1715046057
345,bubaque,11.2833,-15.8333,26.1,74,2,5.26,GW,1715046057
346,lebowakgomo,-24.2,29.5,11.25,57,0,1.01,ZA,1715046057
347,choibalsan,48.0667,114.5,19.86,21,6,0.39,MN,1715046057
348,mount isa,-20.7333,139.5,26.87,29,56,5.66,AU,1715046057
349,kouango,4.9934,19.9619,25.53,58,56,1.91,CF,1715046057
350,gurun,5.8172,100.4738,26.88,79,59,1.15,MY,1715046058
351,progreso,21.2833,-89.6667,34.06,87,47,7.45,MX,1715046058
352,port saint john's,-31.6229,29.5448,22.17,47,0,3.37,ZA,1715046058
353,navalmoral de la mata,39.8916,-5.5406,12.75,59,0,0.77,ES,1715046058
354,brookings,44.3114,-96.7984,18.58,84,100,8.23,US,1715046058
355,eyl,7.9803,49.8164,28.18,80,100,2.21,SO,1715046058
356,mont-dore,-22.2833,166.5833,26.99,99,23,4.7,NC,1715046058
357,benguela,-12.5763,13.4055,24.38,84,29,1.01,AO,1715046059
358,fortuna foothills,32.6578,-114.4119,29.05,11,0,4.12,US,1715046059
359,meadow lake,34.8014,-106.5436,18.71,11,0,9.37,US,1715046059
360,gizo,-8.103,156.8419,29.07,75,86,1.61,SB,1715046059
361,tema,5.667,-0.0166,27.23,89,20,2.06,GH,1715046059
362,gifu-shi,35.4229,136.7604,20.17,100,75,2.57,JP,1715046059
363,lompoc,34.6391,-120.4579,20.99,60,0,7.72,US,1715046059
364,lambarene,-0.7001,10.2406,24.26,97,85,1.52,GA,1715046059
365,ciudad lazaro cardenas,17.9583,-102.2,25.16,71,78,3.21,MX,1715046059
366,crane,31.3974,-102.3501,27.92,15,88,5.41,US,1715046060
367,la tuque,47.4334,-72.7824,13.14,54,8,4.12,CA,1715046060
368,kletnya,53.3897,33.2171,10.3,98,100,1.54,RU,1715046060
369,remire-montjoly,4.9167,-52.2667,28.02,89,100,3.09,GF,1715046060
370,balabac,7.9868,117.0645,30.99,65,4,3.86,PH,1715046060
371,pierre,44.3683,-100.351,15.51,62,75,4.12,US,1715046061
372,volodarskiy,46.4013,48.5409,6.97,65,0,1.55,RU,1715046061
373,wellington,-41.2866,174.7756,13.26,54,20,5.66,NZ,1715045836
374,tyup,42.7276,78.3648,13.51,61,100,0.22,KG,1715046061
375,san andres,12.5847,-81.7006,29.01,84,20,3.09,CO,1715046061
376,jutai,-5.1833,-68.9,23.9,99,98,0.81,BR,1715046061
377,hami,42.8,93.45,29.13,13,3,2.36,CN,1715046061
378,taro,-8.3862,115.28,24.0,61,78,1.19,ID,1715046061
379,dolores,-36.3132,-57.6792,15.44,93,100,4.72,AR,1715046062
380,barranca,-10.75,-77.7667,19.36,85,94,3.55,PE,1715046062
381,fort bragg,35.139,-79.006,22.32,91,75,3.09,US,1715046062
382,bismarck,46.8083,-100.7837,15.92,90,100,10.29,US,1715046001
383,ciudad bolivar,8.1222,-63.5497,32.09,48,100,4.82,VE,1715046062
384,kuppam,12.75,78.3667,26.79,60,65,2.89,IN,1715046062
385,cockburn town,21.4612,-71.1419,25.43,84,15,10.03,TC,1715046062
386,nixa,37.0434,-93.2944,22.94,88,95,2.68,US,1715046062
387,itaituba,-4.2761,-55.9836,23.83,99,19,0.93,BR,1715046063
388,port alfred,-33.5906,26.891,19.6,75,0,2.17,ZA,1715046063
389,golere,16.2557,-14.1017,30.82,15,0,4.95,SN,1715046063
390,lewisville,33.0462,-96.9942,27.37,77,100,9.77,US,1715045768
391,nadym,65.5333,72.5167,-9.46,90,76,3.16,RU,1715046063
392,turaif,31.6725,38.6637,11.14,76,0,3.09,SA,1715046063
393,orange walk,17.8333,-88.8333,26.22,84,1,2.3,BZ,1715046063
394,kanniyakumari,8.0833,77.5667,28.78,76,100,5.93,IN,1715046063
395,sept-iles,50.2001,-66.3821,8.0,87,75,4.12,CA,1715045965
396,strelka,58.0728,93.0344,6.65,63,19,4.02,RU,1715046064
397,severo-yeniseyskiy,60.3725,93.0408,-0.24,88,96,4.92,RU,1715046064
398,kapuskasing,49.4169,-82.4331,14.05,47,20,2.06,CA,1715045795
399,shanwei,22.782,115.3475,26.4,82,99,3.95,CN,1715046064
400,naliya,23.2667,68.8333,27.97,79,0,4.52,IN,1715046064
401,priargunsk,50.3691,119.1012,18.46,28,17,2.45,RU,1715046064
402,kaohsiung,22.6163,120.3133,31.13,69,40,1.03,TW,1715046059
403,boa vista,2.8197,-60.6733,23.99,94,75,1.54,BR,1715045900
404,motygino,58.1831,94.7592,3.21,82,40,2.68,RU,1715046065
405,keflavik,64.0049,-22.5624,3.95,93,75,7.2,IS,1715046065
406,magadan,59.5667,150.8,0.99,77,88,2.35,RU,1715046065
407,ruston,32.5232,-92.6379,24.9,88,0,3.09,US,1715045921
408,wynyard,-41.0,145.7167,14.58,69,91,1.5,AU,1715046065
409,plettenberg bay,-34.0527,23.3716,16.74,58,0,1.1,ZA,1715046065
410,at taj,24.2049,23.2857,19.93,26,6,4.04,LY,1715046065
411,kavieng,-2.5744,150.7967,29.38,73,100,0.67,PG,1715046065
412,koryazhma,61.3143,47.1691,-3.94,78,40,2.43,RU,1715046066
413,malanje,-9.5402,16.341,16.61,73,42,1.4,AO,1715046066
414,dalhousie,32.5333,75.9833,19.47,36,0,3.59,IN,1715046066
415,pacific grove,36.6177,-121.9166,18.16,75,0,5.36,US,1715046066
416,bayganin,48.6947,55.8742,9.31,34,2,2.81,KZ,1715046066
417,lumberton,34.6182,-79.0086,21.92,94,75,4.63,US,1715045862
418,zhalantun,48.0,122.7167,19.83,23,12,0.72,CN,1715046066
419,nagqu,31.5,92.0,3.6,48,100,3.38,CN,1715046066
420,saint-jean-de-monts,46.7833,-2.0667,13.04,85,93,8.02,FR,1715046067
421,vorkuta,67.5,64.0,-18.27,100,76,1.34,RU,1715046067
422,kotlas,61.2611,46.6556,-3.86,85,72,2.24,RU,1715046067
423,kilinochchi,9.3961,80.3982,28.58,80,31,2.7,LK,1715046067
424,madimba,-10.4,40.3333,23.5,92,15,4.12,TZ,1715046067
425,mount pearl,47.5166,-52.7813,3.41,93,100,9.26,CA,1715046067
426,san luis de la loma,17.2706,-100.8939,26.86,70,100,3.44,MX,1715046068
427,zouerate,22.7187,-12.4521,27.98,9,79,2.74,MR,1715046068
428,thanh hoa,19.8,105.7667,29.74,67,12,3.08,VN,1715046068
429,shepparton,-36.3833,145.4,18.57,40,0,1.99,AU,1715046068
430,machico,32.7,-16.7667,19.84,84,40,4.12,PT,1715046068
431,viedma,-40.8135,-62.9967,9.48,91,0,4.0,AR,1715046001
432,nikolayevsk-on-amure,53.1406,140.73,7.92,41,28,2.84,RU,1715046069
433,ceeldheer,3.8488,47.1806,27.43,80,100,3.26,SO,1715046069
434,hammerfest,70.6634,23.6821,-0.75,74,75,5.14,NO,1715046069
435,koulikoro,14.0,-7.75,29.61,9,6,4.17,ML,1715046069
436,nizhniye sergi,56.6614,59.3033,0.77,95,100,5.0,RU,1715046069
437,hailar,49.2,119.7,17.81,25,13,0.22,CN,1715046069
438,paraty,-23.2178,-44.7131,23.54,60,0,2.34,BR,1715045894
439,swift current,50.2834,-107.8014,9.45,100,100,6.17,CA,1715046069
440,westport,41.1415,-73.3579,19.41,85,0,1.54,US,1715046070
441,luocheng,29.3848,104.0286,20.28,85,100,0.38,CN,1715046070
442,vanino,49.0869,140.2543,3.29,84,100,4.73,RU,1715046070
443,mishan,45.55,131.8833,13.26,30,3,8.5,CN,1715046070
444,valparaiso,-33.0393,-71.6273,7.8,76,0,2.57,CL,1715046001
445,eastham,41.8301,-69.9739,16.08,94,100,2.57,US,1715046022
446,yreka,41.7354,-122.6345,14.1,76,75,5.14,US,1715046070
447,la'ie,21.6477,-157.9253,26.98,73,56,2.68,US,1715046070
448,rubio,7.7013,-72.3557,25.47,86,100,2.13,VE,1715046071
449,semenov,56.7875,44.493,-0.57,75,100,2.3,RU,1715046071
450,kenai,60.5544,-151.2583,7.05,91,100,4.63,US,1715046071
451,nahiyat ash shinafiyah,31.5874,44.6602,23.78,46,2,3.34,IQ,1715046071
452,lucapa,-8.4192,20.7447,18.76,66,5,1.21,AO,1715046071
453,maun,-19.9833,23.4167,18.31,38,7,2.73,BW,1715046071
454,bamboo flat,11.7,92.7167,29.05,89,20,0.51,IN,1715046071
455,san miguel,13.4833,-88.1833,26.9,79,72,1.37,SV,1715045968
456,puerto armuelles,8.2833,-82.8667,27.99,72,93,0.45,PA,1715046072
457,vilhena,-12.7406,-60.1458,22.53,78,93,1.6,BR,1715046072
458,urangan,-25.3,152.9,24.0,76,40,4.92,AU,1715046072
459,zuwarah,32.9312,12.082,24.55,28,99,4.6,LY,1715046072
460,imperatriz,-5.5264,-47.4917,23.15,79,76,1.34,BR,1715045893
461,dhidhdhoo,6.8833,73.1,29.22,74,100,4.32,MV,1715046072
462,auki,-8.7676,160.7034,28.03,87,100,1.6,SB,1715046072
463,odda,60.0691,6.5457,11.54,99,100,0.99,NO,1715046072
464,mianyang,31.4593,104.7542,25.56,53,100,1.13,CN,1715046072
465,santiago de cao,-7.9589,-79.2392,19.07,88,75,4.63,PE,1715046073
466,humaita,-7.5061,-63.0208,25.04,96,98,1.51,BR,1715046073
467,kas,36.2018,29.6377,17.73,29,0,2.87,TR,1715046073
468,olinda,-8.0089,-34.8553,24.85,100,75,1.54,BR,1715045873
469,oriximina,-1.7656,-55.8661,25.14,96,100,1.11,BR,1715046073
470,kodinsk,58.6881,99.1844,4.13,58,100,4.66,RU,1715046073
471,sungailiat,-1.85,106.1333,28.53,83,98,3.23,ID,1715046073
472,as saffaniyah,27.9708,48.73,26.32,64,1,2.38,SA,1715046073
473,umm kaddadah,13.6017,26.6876,26.91,16,0,8.35,SD,1715046074
474,torpoint,50.3751,-4.1957,11.67,92,10,2.68,GB,1715046074
475,freetown,8.484,-13.2299,27.09,86,80,2.36,SL,1715046074
476,kirensk,57.7853,108.1119,9.42,71,36,4.47,RU,1715046074
477,samarkand,39.6542,66.9597,15.68,67,43,3.09,UZ,1715046074
478,es castell,39.8795,4.2854,15.38,94,0,7.72,ES,1715046074
479,mili,6.0815,171.735,28.24,79,100,9.13,MH,1715046074
480,fort st. john,56.2499,-120.8529,14.94,23,75,4.63,CA,1715046074
481,carolina,18.3808,-65.9574,27.09,89,75,0.89,PR,1715045941
482,north bend,43.4065,-124.2243,12.31,87,100,4.63,US,1715046075
483,ballina,-28.8667,153.5667,22.1,78,2,8.73,AU,1715046075
484,vila velha,-20.3297,-40.2925,22.97,94,40,2.06,BR,1715046072
485,lagunillas,10.1301,-71.2595,28.49,81,99,3.98,VE,1715046075
486,urrugne,43.3636,-1.6992,13.82,80,75,5.14,FR,1715045820
487,bangassou,4.7413,22.8184,23.15,63,57,0.54,CF,1715046075
488,longquan,24.6719,102.1613,25.02,38,100,1.79,CN,1715046075
489,al hazm,16.1641,44.7769,26.53,38,42,4.07,YE,1715046076
490,coahuayana de hidalgo,18.7,-103.6583,22.12,82,100,0.99,MX,1715046076
491,quellon,-43.1167,-73.6167,5.49,93,100,3.77,CL,1715046076
492,suntar,62.1444,117.6319,5.74,87,100,7.11,RU,1715046076
493,santa cruz,-17.8,-63.1667,25.7,83,40,4.12,BO,1715045941
494,copiapo,-27.3667,-70.3333,10.83,78,43,1.19,CL,1715046076
495,chilecito,-29.1619,-67.4974,14.89,59,0,1.91,AR,1715045799
496,siwan,26.2167,84.3667,27.86,62,5,7.4,IN,1715046077
497,soria,41.6667,-2.6667,4.5,91,0,1.15,ES,1715045945
498,menongue,-14.6585,17.691,13.62,51,0,1.74,AO,1715046077
499,port sudan,19.6175,37.2164,25.66,61,0,3.98,SD,1715046077
500,rongelap,11.1635,166.8941,27.8,79,23,7.37,MH,1715046077
501,mineros,-17.1167,-63.2333,28.6,61,100,4.18,BO,1715046077
502,mpika,-11.8343,31.4529,15.48,97,5,2.43,ZM,1715046077
503,juan griego,11.0817,-63.9655,26.7,86,88,5.02,VE,1715046078
504,poronaysk,49.2167,143.1167,2.91,63,100,6.72,RU,1715046078
505,la ronge,55.1001,-105.2842,13.14,50,100,4.63,CA,1715045903
506,kish,26.5578,54.0194,25.15,83,0,0.0,IR,1715046078
507,jayapura,-2.5333,140.7,29.66,85,100,0.72,ID,1715045805
508,kralendijk,12.15,-68.2667,28.99,79,20,7.2,BQ,1715046078
509,gagliano del capo,39.8442,18.3695,15.68,88,5,4.63,IT,1715046078
510,yuzhno-kurilsk,44.0306,145.8556,5.76,99,100,3.65,RU,1715046079
511,happy valley-goose bay,53.3168,-60.3315,7.17,70,75,3.6,CA,1715046079
512,hassi messaoud,31.6804,6.0729,25.92,13,0,2.57,DZ,1715046079
513,lesnikovo,55.2822,65.3175,8.21,74,64,5.66,RU,1715046079
514,benxi,41.2886,123.765,17.18,29,100,5.35,CN,1715046079
515,juankoski,63.0667,28.35,0.98,77,100,1.75,FI,1715046079
516,moberly,39.4184,-92.4382,21.99,68,40,5.66,US,1715046079
517,maneromango,-7.1988,38.7848,20.74,99,100,1.74,TZ,1715046080
518,ta`u,-14.2336,-169.5144,28.36,82,100,4.67,AS,1715046080
519,linxia chengguanzhen,35.6003,103.2064,15.32,31,100,0.52,CN,1715046080
520,mount gambier,-37.8333,140.7667,16.95,55,1,2.53,AU,1715046080
521,oyama,36.3,139.8,21.99,65,100,6.42,JP,1715046080
522,neftekumsk,44.6667,44.9167,7.91,84,30,0.97,RU,1715046080
523,sanctuary point,-35.1114,150.629,16.85,70,67,3.51,AU,1715046080
524,pokhara,28.2333,83.9833,19.83,65,92,0.65,NP,1715045966
525,belokurikha,51.9959,84.9896,10.15,54,8,2.84,RU,1715046081
526,balykshi,47.0667,51.8667,5.0,87,0,2.0,KZ,1715046081
527,puerto rico,-26.796,-55.024,19.63,73,4,1.66,AR,1715046081
528,jose maria morelos,23.3952,-103.8984,18.9,33,100,2.82,MX,1715046081
529,saint-philippe,-21.3585,55.7679,23.77,78,37,6.37,RE,1715046082
530,nola,40.922,14.5329,17.58,78,100,0.78,IT,1715046082
531,saqqez,36.2499,46.2735,6.77,90,0,2.17,IR,1715046082
532,tongliao,43.6125,122.2653,20.78,20,5,5.65,CN,1715046082
533,barra de santo antonio,-9.4047,-35.5072,25.6,88,100,6.24,BR,1715046082
534,yerofey pavlovich,53.9667,121.9667,18.57,25,95,4.33,RU,1715046082
535,newman,37.3138,-121.0208,22.13,42,9,1.34,US,1715046083
536,vygonichi,53.0985,34.0673,12.04,98,100,3.11,RU,1715046083
537,bosobolo,4.1833,19.9,24.72,61,94,0.78,CD,1715046083
538,masterton,-40.9597,175.6575,13.82,43,48,2.49,NZ,1715046083
539,illizi,26.4833,8.4667,28.89,23,11,5.73,DZ,1715046083
540,sarkand,45.41,79.9186,16.61,58,100,1.2,KZ,1715046083
541,east ballina,-28.8667,153.5833,22.11,78,2,8.73,AU,1715046083
542,veinticinco de mayo,-35.4323,-60.1727,12.77,99,100,1.79,AR,1715046083
543,horta,38.5333,-28.6333,17.79,94,22,6.71,PT,1715046084
544,fort drum,44.0584,-75.7619,13.33,52,0,3.09,US,1715046084
545,hajiganj,23.2511,90.8592,24.59,82,99,2.44,BD,1715046084
546,bilecik,40.0,30.1667,3.38,48,1,1.75,TR,1715046084
547,kingscliff,-28.2667,153.5667,23.18,78,100,7.72,AU,1715046084
548,sitangkai,4.6628,119.3928,28.7,74,70,0.6,PH,1715046084
549,mhamid,29.82,-5.72,24.74,10,0,2.67,MA,1715046084
550,rio grande,-32.035,-52.0986,20.06,96,99,3.89,BR,1715046084
551,prince george,53.9166,-122.753,11.25,62,100,5.14,CA,1715045845
552,arno,60.1167,18.6333,2.66,78,2,5.09,SE,1715046085
553,vernon,50.2581,-119.2691,14.78,53,71,4.63,CA,1715046085
554,kashgar,39.4547,75.9797,20.56,22,20,8.0,CN,1715046085
555,vila franca do campo,37.7167,-25.4333,18.27,99,100,9.13,PT,1715046085
556,alaghsas,17.0187,8.0168,30.39,12,71,4.78,NE,1715046085
557,melfi,40.9965,15.6514,13.39,72,98,3.41,IT,1715046085
558,matthew town,20.95,-73.6667,25.65,86,16,7.95,BS,1715046085
559,puerto santa,-8.9906,-78.6456,19.29,87,100,4.35,PE,1715046085
560,bafra,41.5678,35.9069,7.85,66,7,2.6,TR,1715046086
561,dossor,47.5272,52.9811,13.22,31,0,2.52,KZ,1715046086
562,arenapolis,-14.4503,-56.8461,22.34,61,98,1.5,BR,1715046086
563,aykhal,66.0,111.5,0.96,96,97,10.74,RU,1715046086
564,idri,27.5,13.2667,24.17,29,52,5.08,LY,1715046086
565,zeya,53.75,127.2667,15.83,35,29,1.87,RU,1715046086
566,labrador city,52.9463,-66.9114,2.88,77,75,2.06,CA,1715046086
567,bardai,11.65,7.2333,28.18,50,99,4.89,NG,1715046086
568,zyrya,40.3661,50.2917,13.05,89,100,14.43,AZ,1715046086
569,khanty-mansiysk,61.0042,69.0019,4.06,60,0,4.0,RU,1715046087
570,ishimbay,53.4545,56.0415,4.04,84,10,1.5,RU,1715046087
571,san patricio,28.017,-97.5169,27.13,83,1,5.41,US,1715046087
572,znamenskoye,57.1281,73.8282,7.86,56,100,6.02,RU,1715046087
573,enshi,30.3,109.4833,24.63,73,100,0.54,CN,1715046087
574,diglur,18.55,77.6,34.66,25,0,4.41,IN,1715046087
575,ivins,37.1686,-113.6794,20.62,18,1,1.34,US,1715046087
576,iwanuma,38.1047,140.8594,19.03,78,75,6.17,JP,1715046088
577,ishigaki,24.3448,124.1572,29.07,79,75,6.17,JP,1715046088
578,laojunmiao,39.8333,97.7333,18.48,16,0,3.76,CN,1715046088
579,pedra,-8.4969,-36.9408,21.18,96,100,1.75,BR,1715046088
580,sebastopol,44.6,33.5333,11.59,53,6,0.35,UA,1715046088
