City_ID,City,Lat,Lng,Max Temp,Humidity,Cloudiness,Wind Speed,Country,Date
0,manay,7.215,126.5397,23.5,67,97,2.05,PH,1715116456
1,aliveri,38.4167,24.0333,20.23,69,99,2.11,GR,1715116456
2,alesund,62.4723,6.1549,10.5,94,75,3.09,NO,1715116457
3,okhotsk,59.3833,143.3,0.53,85,63,4.3,RU,1715116457
4,isafjordur,66.0755,-23.124,3.02,87,100,1.54,IS,1715116457
5,luckeesarai,25.1833,86.0833,27.17,59,4,3.2,IN,1715116457
6,center,31.5107,-96.4247,32.67,64,95,0.89,US,1715116457
7,upington,-28.4478,21.2561,22.21,23,32,2.57,ZA,1715116457
8,tiksi,71.6872,128.8694,-1.29,98,100,4.18,RU,1715116457
9,uturoa,-16.7333,-151.4333,27.9,75,75,8.9,PF,1715116457
10,obonoma,4.7084,6.7931,25.58,89,100,1.81,NG,1715116457
11,lihue,21.9789,-159.3672,27.58,68,40,6.69,US,1715116458
12,iqaluit,63.7506,-68.5145,0.85,55,20,5.14,CA,1715116458
13,omis,43.4447,16.6886,18.96,81,81,2.98,HR,1715116405
14,mount gambier,-37.8333,140.7667,7.46,97,7,2.06,AU,1715116458
15,clinton,42.587,-82.9199,19.39,76,100,1.54,US,1715116269
16,salanso,12.1833,-4.0833,31.08,40,82,2.16,BF,1715116278
17,st. john's,47.5649,-52.7093,8.77,93,100,0.89,CA,1715116206
18,namibe,-15.1961,12.1522,23.56,65,3,3.61,AO,1715116458
19,ust'-kut,56.7938,105.7672,-1.42,68,8,1.34,RU,1715116459
20,cidreira,-30.1811,-50.2056,22.72,87,9,3.6,BR,1715116459
21,mokrous,51.2333,47.5167,15.35,43,7,7.55,RU,1715116459
22,sodra sandby,56.5667,16.6167,5.92,86,9,2.38,SE,1715116459
23,grytviken,-54.2811,-36.5092,-2.51,77,35,4.3,GS,1715116459
24,katabu,-4.9333,122.5167,23.65,97,100,0.9,ID,1715116459
25,rabaul,-4.1967,152.1721,27.22,82,100,0.73,PG,1715116459
26,ancud,-41.8697,-73.8203,8.61,69,23,4.04,CL,1715116459
27,puerto aysen,-45.4,-72.7,4.41,92,57,1.53,CL,1715116459
28,acarau,-2.8856,-40.12,26.62,89,45,4.02,BR,1715116251
29,stanley,54.868,-1.6985,8.77,91,0,1.03,GB,1715116460
30,kamina,-8.7386,24.9906,19.52,85,100,1.64,CD,1715116460
31,iskateley,67.6803,53.1512,-8.32,95,100,4.47,RU,1715116460
32,hermosillo,29.0667,-110.9667,33.95,15,0,5.66,MX,1715116196
33,ust-nera,64.5667,143.2,0.77,85,100,1.87,RU,1715116460
34,yellowknife,62.456,-114.3525,12.45,78,100,7.2,CA,1715116460
35,kourou,5.1552,-52.6478,28.03,82,100,3.57,GF,1715116460
36,ola,59.5833,151.2833,0.08,98,98,3.18,RU,1715116460
37,kerikeri,-35.2268,173.9474,12.73,90,43,4.02,NZ,1715116461
38,qaqortoq,60.7167,-46.0333,0.95,58,84,0.86,GL,1715116461
39,sidney,-33.8679,151.2073,15.35,92,75,3.09,AU,1715116191
40,ribeira grande,38.5167,-28.7,19.22,88,75,7.6,PT,1715116461
41,phongsali,21.6833,102.1058,17.27,99,100,0.1,LA,1715116461
42,keflavik,64.0049,-22.5624,4.24,87,75,8.75,IS,1715116461
43,port mathurin,-19.6833,63.4167,25.52,63,36,11.21,MU,1715116461
44,port-aux-francais,-49.35,70.2167,4.55,74,12,15.12,TF,1715116461
45,puerto natales,-51.7236,-72.4875,1.25,75,0,1.54,CL,1715116299
46,hamilton,39.1834,-84.5333,25.71,81,100,5.66,US,1715116462
47,howard springs,-12.497,131.047,23.95,65,26,2.5,AU,1715116462
48,invercargill,-46.4,168.35,7.79,93,100,3.58,NZ,1715116462
49,punta arenas,-53.15,-70.9167,3.06,87,100,4.63,CL,1715116462
50,longyearbyen,78.2186,15.6401,0.91,80,75,4.12,SJ,1715116462
51,waitangi,-43.9535,-176.5597,8.79,83,20,3.4,NZ,1715116462
52,sao felix do xingu,-6.6447,-51.995,27.19,79,30,1.61,BR,1715116386
53,rio tuba,8.5061,117.4317,26.17,83,100,0.9,PH,1715116462
54,east london,-33.0153,27.9116,21.79,71,0,7.77,ZA,1715116462
55,ushuaia,-54.8,-68.3,-0.73,90,49,2.43,AR,1715116268
56,talnakh,69.4865,88.3972,-14.89,96,97,2.47,RU,1715116463
57,chonchi,-42.6128,-73.8092,8.56,83,14,1.62,CL,1715116463
58,adamstown,-25.066,-130.1015,21.79,78,59,4.09,PN,1715116463
59,kodiak,57.79,-152.4072,4.73,87,100,3.6,US,1715116458
60,garissa,-0.4536,39.6401,26.73,69,100,7.07,KE,1715116463
61,nar'yan-mar,67.6713,53.087,-8.27,95,100,4.47,RU,1715116463
62,bairnsdale,-37.8333,147.6167,8.92,97,6,1.54,AU,1715116464
63,al kiswah,33.3572,36.2428,13.27,42,0,2.11,SY,1715116464
64,bilibino,68.0546,166.4372,-2.45,90,92,1.27,RU,1715116464
65,hawaiian paradise park,19.5933,-154.9731,26.13,81,100,2.06,US,1715116464
66,albany,42.6001,-73.9662,25.36,29,31,3.75,US,1715116211
67,acapulco de juarez,16.8634,-99.8901,28.9,70,0,7.72,MX,1715116195
68,sitka,57.0531,-135.33,8.94,66,100,5.66,US,1715116464
69,blackmans bay,-43.0167,147.3167,10.96,91,100,0.45,AU,1715116464
70,thompson,55.7435,-97.8558,13.09,50,40,7.72,CA,1715116465
71,tateyama,34.9833,139.8667,20.61,89,100,2.55,JP,1715116465
72,ephrata,40.1798,-76.1788,26.96,61,100,1.79,US,1715116422
73,puerto ayora,-0.7393,-90.3518,29.98,93,72,3.73,EC,1715116465
74,ankang,32.68,109.0172,18.87,77,99,0.89,CN,1715116465
75,marabba,12.35,32.1833,32.87,11,0,7.48,SD,1715116465
76,college,64.8569,-147.8028,10.18,62,75,1.54,US,1715116465
77,nuuk,64.1835,-51.7216,1.34,60,0,3.6,GL,1715116466
78,friedrichroda,50.8575,10.5651,9.15,95,100,1.49,DE,1715116466
79,flying fish cove,-10.4217,105.6791,24.82,94,75,4.12,CX,1715116466
80,ebon,4.582,168.6964,26.25,89,100,2.57,MH,1715116466
81,port elizabeth,-33.918,25.5701,20.61,88,75,8.75,ZA,1715116466
82,bethel,41.3712,-73.414,26.33,29,0,4.12,US,1715116456
83,margaret river,-33.95,115.0667,14.69,71,27,4.99,AU,1715116466
84,mossel bay,-34.1831,22.146,15.96,89,84,4.04,ZA,1715116466
85,quellon,-43.1167,-73.6167,7.32,75,75,1.39,CL,1715116467
86,daru,-9.0763,143.2092,26.5,88,98,6.78,PG,1715116467
87,afaahiti,-17.75,-149.2833,27.93,77,87,6.76,PF,1715116467
88,carnarvon,-24.8667,113.6333,19.81,44,99,5.11,AU,1715116467
89,firuzabad,28.8438,52.5707,20.74,58,0,1.59,IR,1715116467
90,filipstad,59.7124,14.1683,6.84,71,100,0.98,SE,1715116467
91,port lincoln,-34.7333,135.8667,14.94,87,81,4.88,AU,1715116467
92,brookings,44.3114,-96.7984,16.32,51,100,11.32,US,1715116405
93,malango,-2.9627,119.9001,19.16,99,100,0.72,ID,1715116468
94,las khorey,11.1595,48.1967,30.5,76,16,2.63,SO,1715116468
95,ilulissat,69.2167,-51.1,-3.99,74,75,2.06,GL,1715116468
96,kavieng,-2.5744,150.7967,28.3,81,100,7.01,PG,1715116468
97,ormara,25.2088,64.6357,27.37,80,0,2.95,PK,1715116468
98,yuzhno-kurilsk,44.0306,145.8556,2.99,95,100,9.68,RU,1715116468
99,fisterra,42.9049,-9.2629,14.3,75,100,6.57,ES,1715116468
100,polyarnyy,69.1989,33.4478,-5.93,73,86,3.4,RU,1715116468
101,geraldton,-28.7667,114.6,18.23,48,88,4.63,AU,1715116469
102,idri,27.5,13.2667,32.48,17,100,8.9,LY,1715116469
103,sao vicente,-23.9631,-46.3919,32.93,47,20,3.13,BR,1715116469
104,filey,54.21,-0.2892,8.21,92,100,0.45,GB,1715116469
105,utrik,11.2278,169.8474,28.15,71,100,7.92,MH,1715116469
106,bredasdorp,-34.5322,20.0403,15.99,83,100,1.95,ZA,1715116469
107,abepura,-2.6333,140.5833,25.45,94,40,1.03,ID,1715116469
108,valle de la pascua,9.2155,-66.0073,37.01,29,94,2.94,VE,1715116469
109,bandar lampung,-5.4254,105.258,23.42,97,7,0.36,ID,1715116469
110,katsuren-haebaru,26.3369,127.8719,22.01,93,0,1.54,JP,1715116416
111,chesapeake beach,38.6862,-76.5347,27.32,79,46,1.38,US,1715116470
112,whitehorse,60.7161,-135.0538,8.78,42,75,7.2,CA,1715116470
113,yemva,62.59,50.8594,-3.33,73,6,1.98,RU,1715116470
114,selfoss,63.9331,-20.9971,4.47,68,58,8.03,IS,1715116470
115,anadyr,64.75,177.4833,-6.72,67,40,3.0,RU,1715116471
116,udachny,66.4167,112.4,-0.31,98,95,8.01,RU,1715116471
117,kasulu,-4.5767,30.1025,18.53,90,100,1.57,TZ,1715116471
118,edinburgh of the seven seas,-37.0676,-12.3116,16.51,78,100,18.27,SH,1715116471
119,lubny,50.0163,32.9969,5.28,71,51,7.43,UA,1715116471
120,prince rupert,54.3161,-130.3201,10.05,74,100,10.29,CA,1715116471
121,chibuto,-24.6867,33.5306,18.47,88,0,2.77,MZ,1715116471
122,wotje,9.4543,170.2367,27.74,83,69,9.37,MH,1715116471
123,howrah,22.5892,88.3103,23.0,88,100,3.09,IN,1715116404
124,saipan,15.1355,145.701,28.39,74,40,3.6,MP,1715116282
125,queenstown,-31.8976,26.8753,15.69,35,0,2.43,ZA,1715116472
126,chukhloma,58.7525,42.6825,2.27,68,100,4.47,RU,1715116472
127,vilyuchinsk,52.9306,158.4028,1.63,84,100,2.57,RU,1715116472
128,tralee,52.2704,-9.7026,10.71,87,100,1.18,IE,1715116472
129,dera bugti,29.0307,69.151,31.34,14,0,1.8,PK,1715116472
130,papatowai,-46.5619,169.4708,10.35,80,99,6.8,NZ,1715116472
131,katiola,8.1333,-5.1,28.35,77,33,2.22,CI,1715116472
132,metkovic,43.0542,17.6483,17.26,78,100,1.57,HR,1715116473
133,mount pearl,47.5166,-52.7813,8.31,93,75,1.54,CA,1715116473
134,maintirano,-18.0667,44.0167,24.98,73,15,3.67,MG,1715116473
135,san patricio,28.017,-97.5169,32.4,65,90,5.51,US,1715116473
136,raton,36.9034,-104.4391,22.34,9,0,10.8,US,1715116473
137,dubbo,-32.25,148.6167,9.07,93,0,4.63,AU,1715116473
138,wailua homesteads,22.0669,-159.378,27.24,75,40,6.69,US,1715116473
139,al jawf,29.5,38.75,19.48,28,0,2.92,SA,1715116473
140,vorgashor,67.5833,63.95,-15.67,97,76,2.41,RU,1715116375
141,villa gesell,-37.2639,-56.973,16.7,96,100,8.23,AR,1715116474
142,paredon,16.0333,-93.8667,32.12,56,9,4.97,MX,1715116474
143,praia da vitoria,38.7333,-27.0667,19.31,95,35,8.1,PT,1715116249
144,tamazulapam villa del progreso,17.6806,-97.5689,32.59,16,73,4.25,MX,1715116474
145,colonia,50.9333,6.95,15.46,85,70,2.06,DE,1715116193
146,suzzara,44.9919,10.7431,15.15,96,54,2.18,IT,1715116474
147,junin de los andes,-39.9504,-71.0694,4.86,73,5,5.46,AR,1715116474
148,aguada de pasajeros,22.385,-80.8508,31.76,50,65,5.09,CU,1715116474
149,aasiaat,68.7098,-52.8699,-4.11,93,100,2.45,GL,1715116474
150,morristown,36.214,-83.2949,27.48,69,0,4.63,US,1715116475
151,georgetown,5.4112,100.3354,26.97,90,20,1.54,MY,1715116475
152,berezovyy,51.6667,135.7,6.56,56,61,0.8,RU,1715116475
153,besni,37.6928,37.8611,10.7,59,3,3.77,TR,1715116475
154,anyama,5.4946,-4.0518,27.45,81,51,2.41,CI,1715116475
155,prado,-17.3411,-39.2208,25.29,86,0,2.59,BR,1715116382
156,guatrache,-37.6678,-63.5302,15.12,80,96,1.33,AR,1715116475
157,dedza,-14.3779,34.3332,14.06,63,0,0.79,MW,1715116475
158,west island,-12.1568,96.8225,26.99,78,1,5.14,CC,1715116475
159,hithadhoo,-0.6,73.0833,29.29,77,85,5.18,MV,1715116476
160,khanty-mansiysk,61.0042,69.0019,2.06,64,0,5.0,RU,1715116476
161,kuching,1.55,110.3333,26.12,94,20,0.0,MY,1715116476
162,badger,64.8,-147.5333,10.14,59,75,1.54,US,1715116476
163,iwaki,37.05,140.8833,15.98,82,100,3.11,JP,1715116476
164,saint-philippe,-21.3585,55.7679,22.77,75,39,5.68,RE,1715116476
165,jamestown,42.097,-79.2353,24.73,46,75,2.06,US,1715116476
166,belyye vody,42.4167,69.8333,17.62,44,64,6.45,KZ,1715116476
167,zhezqazghan,47.7833,67.7667,13.71,54,13,5.21,KZ,1715116476
168,extrema,-22.8547,-46.3183,20.23,78,6,2.57,BR,1715116477
169,puerto real,36.5282,-6.1901,20.34,64,0,2.06,ES,1715116477
170,acajutla,13.5928,-89.8275,31.03,66,72,4.07,SV,1715116477
171,kaduna,10.5222,7.4383,26.18,62,100,1.4,NG,1715116477
172,ixtapa,20.7,-105.2,27.57,65,100,5.14,MX,1715116477
173,seosan,36.7817,126.4522,8.98,79,100,3.03,KR,1715116477
174,tura,25.5198,90.2201,21.58,80,100,1.79,IN,1715116477
175,amos,48.5669,-78.1162,15.18,40,10,3.16,CA,1715116477
176,qarazhal,48.0078,70.7903,12.12,74,38,2.72,KZ,1715116478
177,daultala,33.1925,73.1413,25.95,30,0,1.98,PK,1715116478
178,magadan,59.5667,150.8,-0.26,98,98,2.65,RU,1715116478
179,enewetak,11.3474,162.3373,27.69,81,95,9.18,MH,1715116478
180,klyuchi,52.2667,79.1667,12.65,75,100,3.15,RU,1715116478
181,fale old settlement,-9.3852,-171.2468,29.01,78,75,4.31,TK,1715116478
182,shanwei,22.782,115.3475,24.51,82,100,1.36,CN,1715116478
183,shingu,33.7333,135.9833,15.01,81,99,2.47,JP,1715116478
184,vilhena,-12.7406,-60.1458,29.12,65,0,2.06,BR,1715116478
185,lerwick,60.1545,-1.1494,8.0,78,19,1.1,GB,1715116479
186,vila franca do campo,37.7167,-25.4333,18.27,99,8,3.76,PT,1715116479
187,santiago de cao,-7.9589,-79.2392,19.07,88,75,5.66,PE,1715116479
188,coeur d'alene,47.6777,-116.7805,14.41,44,75,5.66,US,1715116479
189,kununurra,-15.7667,128.7333,18.99,77,47,2.06,AU,1715116479
190,ornskoldsvik,63.2909,18.7153,0.53,69,100,1.03,SE,1715116479
191,constantia,44.1833,28.65,18.38,81,100,1.88,RO,1715116479
192,dzuunharaa,48.8523,106.4579,7.18,72,100,6.18,MN,1715116479
193,la passe,45.5549,-0.8967,14.13,88,0,3.01,FR,1715116479
194,port alfred,-33.5906,26.891,19.54,95,45,2.68,ZA,1715116480
195,usogorsk,63.4106,48.6872,-6.85,88,3,1.54,RU,1715116480
196,christchurch,-43.5333,172.6333,6.41,93,3,1.03,NZ,1715116318
197,solvang,34.5958,-120.1377,22.2,49,0,8.23,US,1715116480
198,gadzhiyevo,69.2551,33.3362,-4.84,71,97,3.61,RU,1715116480
199,olonkinbyen,70.9221,-8.7187,0.43,93,6,7.34,SJ,1715116480
200,bhamo,24.2667,97.2333,22.17,65,100,0.48,MM,1715116480
201,anantnag,33.7333,75.15,13.54,49,0,1.83,IN,1715116325
202,vilyuysk,63.7553,121.6247,2.78,85,86,4.47,RU,1715116480
203,yaren,-0.5472,166.916,28.79,73,100,3.84,NR,1715116481
204,puerto maldonado,-12.6,-69.1833,27.22,94,40,1.03,PE,1715116435
205,tommot,58.9564,126.2925,2.69,100,100,0.92,RU,1715116481
206,alice springs,-23.7,133.8833,11.75,82,91,2.06,AU,1715116481
207,itoman,26.1247,127.6694,22.01,83,75,2.06,JP,1715116481
208,inebolu,41.9747,33.7608,12.53,54,0,2.77,TR,1715116481
209,hammerfest,70.6634,23.6821,-1.75,69,0,1.54,NO,1715116481
210,dudinka,69.4058,86.1778,-14.66,100,93,2.19,RU,1715116482
211,lubawa,53.5043,19.7497,3.62,82,43,3.66,PL,1715116482
212,metlili chaamba,32.2667,3.6333,27.52,20,40,1.54,DZ,1715116482
213,val-d'or,48.1002,-77.7828,17.05,36,40,6.17,CA,1715116482
214,korla,41.7597,86.1469,23.5,15,100,1.95,CN,1715116482
215,kone,-21.0595,164.8658,21.52,75,10,1.26,NC,1715116482
216,saint-pierre,-21.3393,55.4781,22.82,56,0,5.14,RE,1715116425
217,skelleftea,64.7507,20.9528,-2.78,83,18,2.06,SE,1715116482
218,san antonio de pale,-1.4014,5.6325,27.46,83,100,2.13,GQ,1715116483
219,sheringham,52.9408,1.2093,11.17,94,27,3.6,GB,1715116483
220,puerto madryn,-42.7692,-65.0385,15.69,63,100,6.99,AR,1715116483
221,ziro,27.6333,93.8333,10.35,96,69,0.8,IN,1715116483
222,capiovi,-26.93,-55.0608,24.84,64,2,2.22,AR,1715116483
223,bardai,11.65,7.2333,29.0,44,99,4.01,NG,1715116483
224,bodo,67.28,14.405,5.43,56,0,11.32,NO,1715116416
225,amalapuram,16.5833,82.0167,26.66,85,99,1.33,IN,1715116483
226,kodinsk,58.6881,99.1844,2.47,89,29,1.24,RU,1715116483
227,ardakan,32.31,54.0175,24.11,32,86,3.09,IR,1715116484
228,vadso,70.0744,29.7487,-1.91,93,75,5.66,NO,1715116374
229,regina,50.4501,-104.6178,10.06,85,100,9.77,CA,1715116318
230,egilsstadir,65.2653,-14.3948,6.95,65,75,4.63,IS,1715116484
231,tidjikja,18.5564,-11.4271,33.45,8,10,1.45,MR,1715116481
232,valozhyn,54.0909,26.5225,2.95,62,3,1.47,BY,1715116484
233,khovd,48.0056,91.6419,11.1,51,85,0.69,MN,1715116484
234,puerto santa,-8.9906,-78.6456,20.65,82,97,5.99,PE,1715116484
235,east falmouth,41.5784,-70.5586,23.23,68,6,2.68,US,1715116484
236,la sarre,48.8002,-79.1996,15.66,39,32,2.97,CA,1715116309
237,makuyuni,-4.7333,38.1,20.57,96,93,1.72,TZ,1715116485
238,karratha,-20.7377,116.8463,24.25,69,0,1.78,AU,1715116485
239,alofi,-19.0595,-169.9187,26.94,94,75,3.6,NU,1715116485
240,uliastay,47.7417,96.8444,10.08,62,100,1.98,MN,1715116485
241,miracema do tocantins,-9.5618,-48.3967,28.08,60,16,1.26,BR,1715116485
242,soma,39.1855,27.6094,16.79,62,13,1.16,TR,1715116485
243,astrakhan,46.3497,48.0408,14.93,47,0,2.0,RU,1715116485
244,st ives,50.2086,-5.4875,11.18,93,53,2.51,GB,1715116485
245,krasnyy chikoy,50.3643,108.7512,4.53,86,93,1.29,RU,1715116486
246,antsohihy,-14.8796,47.9875,24.62,65,0,4.07,MG,1715116486
247,tarawa,1.419,172.984,30.05,84,40,4.63,KI,1715116486
248,avarua,-21.2078,-159.775,29.03,89,75,3.6,CK,1715116486
249,krasnyy yar,46.5331,48.3456,14.96,30,100,2.64,RU,1715116486
250,broken hill,-31.95,141.4333,10.82,67,4,4.66,AU,1715116486
251,opuwo,-18.0607,13.84,18.55,47,1,1.82,NA,1715116486
252,assis,-22.6617,-50.4122,25.8,48,0,3.05,BR,1715116487
253,arar,30.9753,41.0381,20.01,24,0,2.06,SA,1715116487
254,tanout,14.9709,8.8879,34.61,11,98,2.99,NE,1715116487
255,daejeon,36.3333,127.4167,6.97,88,100,2.63,KR,1715116487
256,haiku-pauwela,20.9219,-156.3051,27.34,72,20,8.75,US,1715116487
257,page,36.9147,-111.4558,23.88,8,0,7.6,US,1715116487
258,hermanus,-34.4187,19.2345,14.89,84,100,3.44,ZA,1715116487
259,fort bragg,35.139,-79.006,32.12,54,20,4.63,US,1715116488
260,hami,42.8,93.45,23.32,25,26,2.97,CN,1715116488
261,ishinomaki,38.4167,141.3,12.26,82,100,7.43,JP,1715116488
262,massaguet,12.4755,15.4365,36.16,8,100,3.77,TD,1715116488
263,pointe michel,15.25,-61.3833,29.16,72,100,5.15,DM,1715116488
264,arteche,12.2645,125.4048,26.22,87,100,2.84,PH,1715116488
265,ballito,-29.539,31.2144,17.08,88,0,0.0,ZA,1715116488
266,noumea,-22.2763,166.4572,23.33,99,56,3.61,NC,1715116488
267,tolanaro,-25.0319,46.9987,22.79,83,84,6.58,MG,1715116488
268,balqash,46.8481,74.995,18.43,43,71,2.91,KZ,1715116489
269,houghton,47.1219,-88.569,13.39,58,100,4.63,US,1715116489
270,dimbokro,6.6451,-4.7048,25.95,90,100,1.86,CI,1715116489
271,lepsy,46.235,78.9456,19.15,40,75,1.71,KZ,1715116489
272,laguna,38.421,-121.4238,24.05,44,0,5.14,US,1715116489
273,pisco,-13.7,-76.2167,22.03,73,86,10.29,PE,1715116426
274,port hedland,-20.3167,118.5667,20.03,83,0,2.57,AU,1715116489
275,carutapera,-1.195,-46.02,25.53,93,58,2.46,BR,1715116489
276,sabang,5.8933,95.3214,28.58,74,100,2.56,ID,1715116489
277,nova vicosa,-17.8919,-39.3719,25.54,82,0,2.82,BR,1715116490
278,gillette,44.2911,-105.5022,10.62,43,100,5.36,US,1715116421
279,newman,37.3138,-121.0208,22.36,54,8,8.94,US,1715116490
280,kapuskasing,49.4169,-82.4331,17.05,34,100,3.05,CA,1715116253
281,weno,7.4515,151.8468,24.97,100,100,5.14,FM,1715116490
282,lompoc,34.6391,-120.4579,22.08,63,0,8.23,US,1715116490
283,tazovsky,67.4667,78.7,-12.07,96,95,3.92,RU,1715116490
284,la'ie,21.6477,-157.9253,27.98,72,21,2.68,US,1715116491
285,midvagur,62.0511,-7.1939,8.46,87,100,6.17,FO,1715116491
286,smithers,54.7804,-127.1743,10.18,32,75,5.66,CA,1715116491
287,cizre,37.3272,42.1903,11.56,93,75,1.54,TR,1715116491
288,happy valley-goose bay,53.3168,-60.3315,7.17,57,75,8.23,CA,1715116362
289,an nuhud,12.7,28.4333,28.89,14,96,5.77,SD,1715116491
290,greymouth,-42.4667,171.2,5.69,70,28,2.66,NZ,1715116491
291,lazaro cardenas,17.9583,-102.2,29.3,53,99,6.08,MX,1715116466
292,coxen hole,16.3244,-86.5366,30.6,79,20,5.66,HN,1715116283
293,aitape,-3.1374,142.3475,25.92,93,100,1.59,PG,1715116492
294,arafat,21.3594,39.9664,28.06,24,0,2.84,SA,1715116492
295,bossangoa,6.4926,17.4552,25.99,67,92,0.4,CF,1715116492
296,adrar,20.5022,-10.0711,33.2,7,96,3.27,MR,1715116492
297,yinchuan,38.4681,106.2731,19.06,22,60,1.01,CN,1715116492
298,minas de marcona,-15.2119,-75.1103,17.01,75,81,8.75,PE,1715116493
299,grand falls-windsor,48.9332,-55.6649,13.06,79,78,0.89,CA,1715116252
300,novodvinsk,64.4165,40.8122,-2.34,83,28,1.84,RU,1715116493
301,tofol,5.3248,163.0078,28.24,80,56,5.91,FM,1715116493
302,kirakira,-10.4544,161.9205,27.6,83,100,3.26,SB,1715116493
303,mongoumba,3.6415,18.5936,24.44,82,100,1.6,CF,1715116493
304,sisimiut,66.9395,-53.6735,-3.18,82,100,1.2,GL,1715116493
305,qamdo,31.1667,97.2333,2.23,78,43,1.29,CN,1715116493
306,sinabang,2.4803,96.3801,26.85,81,94,1.26,ID,1715116494
307,burutu,5.3509,5.5076,26.33,88,100,1.71,NG,1715116494
308,maksatikha,57.797,35.8825,-2.06,79,7,2.14,RU,1715116494
309,kasungu,-13.0333,33.4833,16.97,73,0,1.39,MW,1715116494
310,tazacorte,28.629,-17.9293,21.19,91,100,3.6,ES,1715116494
311,murghob,38.1702,73.9667,-1.77,44,63,2.59,TJ,1715116494
312,boende,-0.2167,20.8667,25.67,73,93,1.2,CD,1715116494
313,kwolla,8.9333,9.2833,28.7,62,100,1.94,NG,1715116494
314,touros,-5.1989,-35.4608,26.02,83,71,3.91,BR,1715116458
315,duba,27.3513,35.6901,24.28,47,0,2.55,SA,1715116495
316,kudahuvadhoo,2.6708,72.8944,29.73,78,61,5.64,MV,1715116386
317,saham,24.1722,56.8886,33.01,44,7,1.63,OM,1715116495
318,kailua-kona,19.6406,-155.9956,27.98,75,0,4.12,US,1715116361
319,yadrin,55.9405,46.2062,2.31,98,100,5.31,RU,1715116495
320,axum,14.1245,38.7244,18.63,50,12,2.11,ET,1715116495
321,raja,8.4596,25.678,30.44,28,63,1.32,SS,1715116495
322,susuman,62.7833,148.1667,0.55,75,83,2.24,RU,1715116496
323,george town,5.4112,100.3354,26.97,90,20,1.54,MY,1715116475
324,hwange,-18.3693,26.5019,21.86,49,1,1.13,ZW,1715116496
325,crane,31.3974,-102.3501,32.82,9,0,7.08,US,1715116496
326,usinsk,65.9939,57.5281,-4.4,90,100,6.26,RU,1715116496
327,rocky mountain house,52.3668,-114.9188,8.4,58,100,8.36,CA,1715116239
328,morococha,-11.5997,-76.1411,9.67,47,98,3.4,PE,1715116496
329,nema,57.5067,50.5011,1.03,99,100,6.34,RU,1715116496
330,concepcion,-36.827,-73.0498,10.46,64,48,2.97,CL,1715116221
331,callao,-12.0667,-77.15,20.16,83,40,4.63,PE,1715116199
332,thurso,58.5927,-3.5259,7.14,88,78,3.87,GB,1715116497
333,palmer,42.1584,-72.3287,26.85,23,20,4.63,US,1715116297
334,zapolyarnyy,69.4154,30.8136,-3.4,85,19,1.74,RU,1715116497
335,radhanpur,23.8333,71.6,30.01,53,2,6.49,IN,1715116497
336,ubari,26.5921,12.7805,28.89,29,100,1.57,LY,1715116497
337,petropavlovsk-kamchatsky,53.0452,158.6483,0.81,78,100,3.58,RU,1715116497
338,atafu village,-8.5421,-172.5159,29.5,75,96,4.94,TK,1715116497
339,guerrero negro,27.9769,-114.0611,20.12,53,0,8.76,MX,1715116498
340,saint-joseph,-21.3667,55.6167,22.21,73,25,5.9,RE,1715116498
341,fortuna,40.5982,-124.1573,15.52,66,0,8.23,US,1715116498
342,vernon,50.2581,-119.2691,17.34,34,96,2.24,CA,1715116385
343,botou,38.0667,116.5667,14.48,34,0,2.72,CN,1715116498
344,ketchikan,55.3422,-131.6461,11.26,58,40,6.69,US,1715116498
345,mount isa,-20.7333,139.5,18.87,48,68,3.09,AU,1715116498
346,hays,30.0502,-98.0336,32.08,71,95,3.58,US,1715116498
347,nizhniy lomov,53.5304,43.6766,7.03,94,99,4.97,RU,1715116498
348,altai,46.3722,96.2583,9.87,55,100,1.41,MN,1715116499
349,wynyard,-41.0,145.7167,13.2,68,93,3.78,AU,1715116499
350,el calafate,-50.3408,-72.2768,-2.09,71,89,0.92,AR,1715116499
351,laojunmiao,39.8333,97.7333,13.1,26,64,1.02,CN,1715116499
352,lebu,-37.6167,-73.65,10.39,68,3,2.21,CL,1715116499
353,klein schwulper,52.3415,10.429,11.83,75,100,2.57,DE,1715116499
354,ulsteinvik,62.3432,5.8487,10.5,94,100,2.24,NO,1715116499
355,eureka,40.8021,-124.1637,15.67,67,35,5.36,US,1715116232
356,inhambane,-23.865,35.3833,22.59,74,0,3.23,MZ,1715116500
357,zhangye,38.9342,100.4517,17.34,27,55,1.44,CN,1715116500
358,tubarjal,30.4999,38.216,19.67,35,0,5.98,SA,1715116500
359,tarko-sale,64.9225,77.785,0.96,99,100,2.66,RU,1715116500
360,poronaysk,49.2167,143.1167,0.87,60,9,6.27,RU,1715116500
361,illizi,26.4833,8.4667,32.89,16,8,0.64,DZ,1715116500
362,blackwater,-23.5833,148.8833,16.38,88,7,2.84,AU,1715116500
363,puerto baquerizo moreno,-0.9,-89.6,27.55,74,75,6.17,EC,1715116501
364,hlobyne,49.3878,33.2596,7.11,83,39,7.35,UA,1715116501
365,zhumysker,49.3333,49.4,16.23,28,100,3.1,KZ,1715116501
366,sao joao da barra,-21.6403,-41.0511,25.05,88,0,4.59,BR,1715116330
367,puerto deseado,-47.7503,-65.8938,3.59,97,100,6.51,AR,1715116501
368,muravlenko,63.7898,74.523,1.0,100,100,1.82,RU,1715116501
369,santa luzia,-19.7697,-43.8514,24.5,61,20,3.6,BR,1715116501
370,pandan,14.0453,124.1694,26.5,80,40,3.06,PH,1715116501
371,sa kaeo,13.75,102.3333,25.1,84,98,0.94,TH,1715116502
372,kalemie,-5.9475,29.1947,23.38,81,51,1.51,CD,1715116502
373,gisborne,-38.6533,178.0042,11.98,71,100,3.45,NZ,1715116502
374,dondo,-19.6094,34.7431,22.73,94,0,2.31,MZ,1715116502
375,cape coast,5.1053,-1.2466,28.47,77,67,5.3,GH,1715116503
376,new norfolk,-42.7826,147.0587,11.62,87,100,0.35,AU,1715116503
377,banda aceh,5.5577,95.3222,27.46,82,100,2.75,ID,1715116503
378,al hufuf,25.3646,49.5653,29.19,58,0,4.12,SA,1715116503
379,buala,-8.145,159.5921,28.13,84,88,4.58,SB,1715116503
380,al burayqah,30.4062,19.5739,21.55,51,52,3.61,LY,1715116504
381,pocito,-31.6833,-68.5833,23.81,7,0,14.5,AR,1715116504
382,chimoio,-19.1164,33.4833,14.66,95,0,0.55,MZ,1715116322
383,ulaangom,49.9811,92.0667,10.4,45,54,2.42,MN,1715116504
384,chibougamau,49.9168,-74.3659,6.79,76,100,3.09,CA,1715116504
385,celestun,20.8667,-90.4,30.47,65,41,6.34,MX,1715116504
386,ginir,7.1333,40.7,14.95,92,14,3.32,ET,1715116504
387,figuig (centre),32.1089,-1.2286,23.96,14,1,4.32,MA,1715116504
388,pionerskiy,54.9508,20.2275,7.12,69,0,5.9,RU,1715116504
389,sagua la grande,22.8067,-80.0756,31.55,56,34,7.47,CU,1715116505
390,playas,-2.6333,-80.3833,27.02,73,47,5.53,EC,1715116505
391,san juan,-31.5375,-68.5364,24.28,6,0,15.46,AR,1715116462
392,kaluga,54.5,35.5,1.74,93,21,3.97,RU,1715116505
393,nort-sur-erdre,47.4333,-1.5,15.1,93,40,3.04,FR,1715116505
394,nadi,-17.8,177.4167,26.0,73,75,4.12,FJ,1715116494
395,kemijarvi,66.7131,27.4306,-7.54,94,12,2.11,FI,1715116505
396,labytnangi,66.6572,66.4183,-9.23,90,54,5.74,RU,1715116505
397,mirnyy,62.5353,113.9611,-3.2,87,67,5.81,RU,1715116506
398,zouerate,22.7187,-12.4521,33.54,8,40,3.82,MR,1715116506
399,lastoursville,-0.8143,12.7287,24.0,97,89,0.79,GA,1715116506
400,merritt,50.1123,-120.7942,14.07,39,99,0.89,CA,1715116506
401,ciudad guayana,8.3533,-62.6528,34.18,57,93,5.32,VE,1715116506
402,mogadishu,2.0371,45.3438,27.48,86,96,4.91,SO,1715116506
403,codrington,-38.2667,141.9667,8.75,94,28,3.23,AU,1715116506
404,la libertad,-2.2333,-80.9,28.81,70,40,5.66,EC,1715116506
405,cartagena del chaira,1.3349,-74.8429,32.68,56,93,0.51,CO,1715116356
406,drean,36.6848,7.7511,16.86,82,40,6.69,DZ,1715116507
407,guia lopes da laguna,-21.4578,-56.1142,31.97,33,0,3.09,BR,1715116507
408,kingaroy,-26.5333,151.8333,14.98,81,100,4.31,AU,1715116507
409,harstad,68.799,16.5293,2.66,62,6,15.65,NO,1715116507
410,amga,60.8953,131.9608,5.48,83,100,2.46,RU,1715116507
411,mejit,10.2753,170.8646,27.66,80,85,8.63,MH,1715116507
412,limulunga,-15.0969,23.1376,22.89,55,80,0.87,ZM,1715116507
413,sarayonu,38.262,32.4046,10.79,39,0,1.77,TR,1715116507
414,ad dabbah,18.05,30.95,27.6,13,4,5.22,SD,1715116507
415,nemuro,43.3236,145.575,2.77,90,100,8.85,JP,1715116508
416,gebeit,21.0667,36.3167,22.85,44,0,2.33,SD,1715116508
417,jinchang,38.4953,102.1739,16.72,28,96,2.19,CN,1715116508
418,bambanglipuro,-7.95,110.2833,24.13,92,33,1.54,ID,1715116508
419,jinghong,21.991,100.7341,19.56,98,59,0.5,CN,1715116508
420,enriquillo,17.9,-71.2333,30.82,69,61,2.75,DO,1715116508
421,taltal,-25.4,-70.4833,16.17,77,100,2.48,CL,1715116220
422,hiriyur,13.9456,76.6192,27.71,56,32,3.44,IN,1715116508
423,banyuls de la marenda,42.4837,3.129,16.1,59,100,8.09,FR,1715116509
424,lorengau,-2.0226,147.2712,27.02,88,99,6.89,PG,1715116509
425,bereeda,11.8704,51.0579,29.63,74,14,3.77,SO,1715116509
426,fort st. john,56.2499,-120.8529,14.94,17,40,9.26,CA,1715116509
427,cambria,35.5641,-121.0808,25.23,51,6,7.17,US,1715116509
428,koulikoro,14.0,-7.75,35.32,24,60,3.33,ML,1715116509
429,mananara,-16.1667,49.7667,23.6,92,85,5.54,MG,1715116509
430,port douglas,-16.4833,145.4667,24.52,84,91,6.91,AU,1715116222
431,salinas,36.6777,-121.6555,24.45,64,0,5.66,US,1715116510
432,kapa'a,22.0752,-159.319,27.99,75,40,6.69,US,1715116510
433,naze,28.3667,129.4833,16.51,69,61,2.75,JP,1715116510
434,hafar al-batin,28.4328,45.9708,26.32,21,0,4.12,SA,1715116510
435,sirsilla,18.3833,78.8333,25.9,63,30,4.56,IN,1715116510
436,luderitz,-26.6481,15.1594,16.25,88,0,6.8,NA,1715116510
437,i-n-salah,27.1935,2.4607,32.89,8,11,4.98,DZ,1715116510
438,sirte,31.2089,16.5887,22.17,51,95,9.36,LY,1715116510
439,the pas,53.8251,-101.2541,19.01,34,0,5.14,CA,1715116511
440,purpe,64.4803,76.6897,0.81,100,100,1.49,RU,1715116511
441,tocopilla,-22.092,-70.1979,18.64,75,28,4.28,CL,1715116255
442,columbia falls,48.3725,-114.1815,10.45,71,100,4.63,US,1715116454
443,mirpur sakro,24.5474,67.6277,27.8,77,0,6.42,PK,1715116511
444,cheremukhovo,60.3484,59.9851,1.01,69,97,1.79,RU,1715116511
445,al bawiti,28.3492,28.8659,21.4,23,3,2.9,EG,1715116511
446,tomatlan,19.9333,-105.25,32.89,35,98,6.09,MX,1715116511
447,chaparral,3.7232,-75.4832,27.9,73,100,1.25,CO,1715116512
448,luanda,-8.8368,13.2343,27.0,89,40,3.09,AO,1715116382
449,ataq,14.5377,46.8319,24.19,72,62,4.45,YE,1715116512
450,naifaru,5.4444,73.3657,28.9,80,75,4.11,MV,1715116512
451,gilgit,35.9221,74.3087,15.57,44,17,2.13,PK,1715116512
452,caleta de carquin,-11.0925,-77.6267,21.1,81,78,5.52,PE,1715116512
453,novyy turtkul',41.55,61.0167,20.95,27,95,8.21,UZ,1715116512
454,mek'ele,13.4967,39.4753,19.8,64,90,3.96,ET,1715116512
455,dingcheng,32.1272,115.0394,17.93,69,94,3.29,CN,1715116513
456,salinopolis,-0.6136,-47.3561,26.75,87,100,4.23,BR,1715116513
457,krasnovishersk,60.4078,57.082,-1.3,85,100,1.46,RU,1715116513
458,dalandzadgad,43.5708,104.425,18.08,14,74,5.37,MN,1715116513
459,corbelia,-24.7989,-53.3067,27.64,47,46,2.42,BR,1715116513
460,zhanaozen,43.3,52.8,13.43,87,71,10.39,KZ,1715116513
461,balkashino,52.5167,68.7667,6.76,69,0,2.65,KZ,1715116513
462,baruun-urt,46.6806,113.2792,16.62,22,42,6.33,MN,1715116513
463,severo-yeniseyskiy,60.3725,93.0408,-3.01,96,100,1.79,RU,1715116514
464,san ramon,37.7799,-121.978,23.75,43,0,6.69,US,1715116514
465,samana,19.2056,-69.3369,27.12,78,75,2.06,DO,1715116514
466,yelan',50.949,43.7378,14.75,65,3,5.46,RU,1715116514
467,kruisfontein,-34.0033,24.7314,19.38,92,100,5.26,ZA,1715116514
468,north bend,43.4065,-124.2243,15.55,67,40,6.69,US,1715116514
469,lugovoye,42.9094,72.7178,16.14,65,68,1.17,KZ,1715116514
470,ingeniero guillermo n. juarez,-23.9,-61.85,34.04,45,14,4.7,AR,1715116514
471,dakhla,23.6848,-15.958,19.01,88,0,9.26,EH,1715116515
472,leh,34.1667,77.5833,-3.31,54,0,3.5,IN,1715116515
473,beauceville,46.2179,-70.7787,17.81,32,94,3.6,CA,1715116320
474,carqueiranne,43.0953,6.073,15.7,64,0,1.54,FR,1715116515
475,mazagao,-0.115,-51.2894,28.03,99,100,1.35,BR,1715116515
476,margate,51.3813,1.3862,11.84,89,20,3.13,GB,1715116515
477,flowood,32.3096,-90.139,29.58,73,100,5.14,US,1715116515
478,inari,68.906,27.0288,-2.89,96,14,0.78,FI,1715116516
479,valley center,33.2184,-117.0342,24.5,58,0,3.13,US,1715116516
480,warora,20.2333,79.0,26.97,58,0,2.75,IN,1715116516
481,al kharj,24.155,47.3346,29.32,18,1,3.74,SA,1715116516
482,richlands,37.0932,-81.7937,24.43,83,40,2.57,US,1715116420
483,alaghsas,17.0187,8.0168,32.74,12,96,1.89,NE,1715116516
484,klaksvik,62.2266,-6.589,8.51,83,99,7.37,FO,1715116516
485,puerto el triunfo,13.2833,-88.55,36.48,63,22,4.64,SV,1715116517
486,alexandria,31.2156,29.9553,19.3,59,1,3.13,EG,1715116444
487,novyy urengoy,66.0833,76.6333,-4.01,96,100,7.57,RU,1715116517
488,mont-dore,-22.2833,166.5833,23.33,99,63,2.68,NC,1715116517
489,talakan,50.3167,130.3667,10.0,51,39,1.89,RU,1715116517
490,novoselitskoye,44.7508,43.4369,9.95,64,100,3.31,RU,1715116517
491,yanchep,-31.55,115.6833,18.07,50,2,5.5,AU,1715116517
492,campo gallo,-26.5833,-62.85,24.43,81,100,2.17,AR,1715116517
493,xilin hot,43.9667,116.0333,12.19,24,7,2.94,CN,1715116518
494,ta`u,-14.2336,-169.5144,29.03,80,90,4.57,AS,1715116518
495,itaituba,-4.2761,-55.9836,27.09,94,100,4.12,BR,1715116518
496,kiunga,-6.1219,141.2906,23.73,100,100,1.7,PG,1715116518
497,santana,-0.0583,-51.1817,28.1,83,100,1.54,BR,1715116518
498,melo,-32.3667,-54.1833,21.61,94,97,4.11,UY,1715116518
499,antofagasta,-23.65,-70.4,16.08,80,91,3.22,CL,1715116395
500,sandwip,22.4678,91.4561,28.84,75,100,0.99,BD,1715116518
501,conceicao do araguaia,-8.2578,-49.2647,27.69,68,25,0.44,BR,1715116518
502,kirkland lake,48.1446,-80.0377,20.16,30,94,2.57,CA,1715116519
503,san justo,-30.7891,-60.5919,20.53,97,100,2.05,AR,1715116519
504,konstantinovka,49.6167,127.9833,14.45,30,80,5.61,RU,1715116519
505,teknaf,20.8624,92.3058,25.42,85,88,2.15,BD,1715116519
506,sanctuary point,-35.1114,150.629,14.62,81,85,1.69,AU,1715116519
507,veinticinco de mayo,-35.4323,-60.1727,17.21,99,100,2.32,AR,1715116519
508,holualoa,19.6228,-155.9522,25.91,75,0,4.12,US,1715116519
509,villa de arista,22.65,-100.8333,34.85,9,100,5.74,MX,1715116519
510,hilo,19.7297,-155.09,26.25,82,100,2.06,US,1715116337
511,kiffa,16.6166,-11.4045,36.01,6,0,3.7,MR,1715116520
512,isola di capo rizzuto,38.96,17.0933,16.73,87,100,6.14,IT,1715116520
513,ranchettes,41.2186,-104.7903,11.45,24,40,14.92,US,1715116520
514,oroqen zizhiqi,50.5667,123.7167,11.54,44,100,1.68,CN,1715116520
515,svetlyy,54.675,20.1347,7.24,79,0,3.07,RU,1715116520
516,south hedland,-20.4089,118.5983,19.96,83,0,2.57,AU,1715116520
517,urzhar,47.093,81.6294,15.24,66,11,1.76,KZ,1715116520
518,hadibu,12.65,54.0333,29.19,74,8,0.73,YE,1715116520
519,mersing,2.4312,103.8405,25.25,89,97,1.12,MY,1715116255
520,cuyo,10.8525,121.0086,29.45,73,77,4.91,PH,1715116521
521,minab,27.1467,57.0801,30.5,39,0,1.34,IR,1715116521
522,cascais,38.6979,-9.4215,19.92,57,20,7.72,PT,1715116521
523,thinadhoo,0.5333,72.9333,29.47,78,24,6.36,MV,1715116521
524,winters,38.5249,-121.9708,24.82,27,0,8.23,US,1715116521
525,punta del este,-34.9667,-54.95,21.06,98,75,4.63,UY,1715116521
526,arraial do cabo,-22.9661,-42.0278,24.98,83,0,6.17,BR,1715116521
527,remire-montjoly,4.9167,-52.2667,28.02,83,40,4.63,GF,1715116522
528,belyayevka,51.3974,56.4096,12.27,63,100,3.05,RU,1715116522
529,tsiombe,-25.3,45.4833,20.79,84,0,3.07,MG,1715116522
530,punxsutawney,40.9437,-78.9709,25.12,68,95,1.34,US,1715116522
531,sinjai,-5.1241,120.253,23.61,93,43,1.87,ID,1715116522
532,mangrol,21.1167,70.1167,27.39,86,0,6.13,IN,1715116522
533,rundu,-17.9333,19.7667,21.97,50,66,2.04,NA,1715116522
534,saudarkrokur,65.7461,-19.6394,5.44,67,99,6.14,IS,1715116522
535,kuta,-8.7233,115.1723,26.97,94,20,4.12,ID,1715116522
536,bengkulu,-3.8004,102.2655,24.6,95,100,0.64,ID,1715116523
537,rongelap,11.1635,166.8941,27.57,80,74,8.08,MH,1715116523
538,revda,56.801,59.9303,4.57,84,100,5.84,RU,1715116523
539,micheweni,-4.9667,39.8333,26.59,82,100,6.09,TZ,1715116523
540,mata-utu,-13.2816,-176.1745,29.65,77,94,5.85,WF,1715116523
541,madalena,41.2162,-8.3345,18.03,73,100,0.96,PT,1715116523
542,vila velha,-20.3297,-40.2925,25.97,78,0,2.06,BR,1715116435
543,sampit,-2.5333,112.95,24.41,93,59,0.84,ID,1715116523
544,thief river falls,48.1191,-96.1812,16.53,77,100,11.83,US,1715116255
545,marsa alam,25.0757,34.8918,23.08,43,0,3.29,EG,1715116524
546,krutinka,56.0055,71.5113,4.81,80,25,3.12,RU,1715116524
