City_ID,City,Lat,Lng,Max Temp,Humidity,Cloudiness,Wind Speed,Country,Date
0,edinburgh of the seven seas,-37.0676,-12.3116,286.84,62,35,14.35,SH,1714946745
1,east end,34.5507,-92.341,293.65,91,100,2.23,US,1714947111
2,jaciara,-15.9653,-54.9683,300.01,44,0,1.39,BR,1714946913
3,holualoa,19.6228,-155.9522,298.06,80,40,3.6,US,1714946867
4,chibougamau,49.9168,-74.3659,283.94,93,100,5.66,CA,1714947112
